FUELLOCATION_ID,StationName,Address,City,State,PostCode,Region,MSA,County,Latitude,Longitude,StoreBrand,SupplyBrand,GasBrand,CorpBrand,Phone,OPISTruckstop_ID,PrimaryRack_ID,PrimaryRack_Name,SecondaryRack_ID,SecondayRack_NAME,distance_to_primary_rack_miles,distance_to_secondary_rack_miles
522166,WOODYS FOOD STORE #102,51348 US HIGHWAY 60,Aguila,AZ,85320,Southwest,"Phoenix, AZ",Maricopa,33.9432320843,-113.1734530686,Woodys Food Store,Unbranded,Woodys Food Store,Woodys Enterprises LTD,(928)685-2352,,930,"Phoenix, AZ",860.0,"Barstow, CA",71.86103309685494,229.0543233320541
266435,CHEVRON,2001 N AJO GILA BEND HWY,Ajo,AZ,85321,Southwest,"Tucson, AZ",Pima,32.3931088837,-112.8726042405,Chevron,Chevron,Chevron,Chevron,(520)387-5853,,930,"Phoenix, AZ",980.0,"Tucson, AZ",86.38580448583049,111.46142821272109
559547,WHY NOT TRAVEL SERVICES,230 S SONOYTA WAY,Ajo,AZ,85321,Southwest,"Tucson, AZ",Pima,32.2636959164,-112.740944403,Texaco,Chevron,Texaco,Chevron,(520)387-7783,,930,"Phoenix, AZ",980.0,"Tucson, AZ",90.55174631004097,103.2610198755336
541799,SHELL,429 N 2ND AVE,Ajo,AZ,85321,Southwest,"Tucson, AZ",Pima,32.3750975313,-112.8726303692,Shell,Shell,Shell,Shell,(520)387-6200,,930,"Phoenix, AZ",980.0,"Tucson, AZ",87.44213823059243,111.34925906520763
434888,CIRCLE K #0228,560 N 2ND AVE,Ajo,AZ,85321,Southwest,"Tucson, AZ",Pima,32.375893,-112.872214,Circle K,Unbranded,Circle K,Couche-Tard,,,930,"Phoenix, AZ",980.0,"Tucson, AZ",87.3826167961454,111.32978172876736
652408,DESERT DIAMOND CONVENIENCE,HWY 86 MILE POST 55,Ajo,AZ,85321,Southwest,"Tucson, AZ",Pima,32.2439170633,-112.7267114107,Unbranded,Unbranded,Unbranded,Unbranded,(520)547-4321,,930,"Phoenix, AZ",980.0,"Tucson, AZ",91.44549351921601,102.41193290595851
124755,The TACKLE SHOP,US-191,Alpine,AZ,85920,Southwest,,Apache,33.8480430586,-109.1467433725,Unbranded,Unbranded,Unbranded,Unbranded,(928)339-4338,,617,"Ciniza, NM",580.0,"Albuquerque, NM",168.11369597526758,165.89015732708228
518182,CANYON FOOD MART,1000 E OLD WEST HWY,Apache Junction,AZ,85119,Southwest,"Phoenix, AZ",Pinal,33.4074605445,-111.5355552373,76,PSX,76,PSX,(480)288-2811,,930,"Phoenix, AZ",980.0,"Tucson, AZ",31.179276282649198,88.11102078983727
677421,FRYS FUEL,150 E OLD WEST HWY,Apache Junction,AZ,85119,Southwest,"Phoenix, AZ",Pinal,33.4127977229,-111.5448009968,Frys,Unbranded,Frys,Kroger,,,930,"Phoenix, AZ",980.0,"Tucson, AZ",30.615564779062964,88.65250427013113
652115,CIRCLE K #3442,1550 W APACHE TRL,Apache Junction,AZ,85120,Southwest,"Phoenix, AZ",Pinal,33.415689,-111.562875,Circle K,Unbranded,Circle K,Couche-Tard,(480)982-6774,,930,"Phoenix, AZ",980.0,"Tucson, AZ",29.5603720811025,89.23404623458703
542428,MARATHON,1571 W APACHE TRL,Apache Junction,AZ,85120,Southwest,"Phoenix, AZ",Pinal,33.414844,-111.563089,Marathon,Marathon,Marathon,Marathon,,,930,"Phoenix, AZ",980.0,"Tucson, AZ",29.552734583910205,89.18492987380331
159597,FOUR SONS FOOD STORE #501,1633 W SUPERSTITION BLVD,Apache Junction,AZ,85120,Southwest,"Phoenix, AZ",Pinal,33.4220876735,-111.5637596014,Four Sons Food Store,Chevron,Chevron,Bro Retail Group Inc,(480)982-5222,,930,"Phoenix, AZ",980.0,"Tucson, AZ",29.477860888629465,89.6617804822026
565217,FRYS FUEL #7065 (DISCOUNT AVAILABLE),185 W APACHE TRL,Apache Junction,AZ,85120,Southwest,"Phoenix, AZ",Pinal,33.4133325887,-111.5479628259,Frys,Unbranded,Frys,Kroger,(480)288-2140,,930,"Phoenix, AZ",980.0,"Tucson, AZ",30.43077129260971,88.75544693868153
620660,QUIKTRIP #437,21 E OLD WEST HWY,Apache Junction,AZ,85119,Southwest,"Phoenix, AZ",Pinal,33.4119980144,-111.5454856836,QuikTrip,Unbranded,QuikTrip,QuikTrip,(480)288-9023,,930,"Phoenix, AZ",980.0,"Tucson, AZ",30.580845129446068,88.61616469297914
450377,CIRCLE K #1647,2341 S IRONWOOD DR,Apache Junction,AZ,85120,Southwest,"Phoenix, AZ",Pinal,33.393831,-111.562913,Circle K,Unbranded,Circle K,Couche-Tard,(480)288-5648,,930,"Phoenix, AZ",980.0,"Tucson, AZ",29.71554576043052,87.84312489210006
420254,CIRCLE K #1556,2360 W BROADWAY AVE,Apache Junction,AZ,85120,Southwest,"Phoenix, AZ",Pinal,33.407998,-111.571816,Circle K,Unbranded,Circle K,Couche-Tard,(480)982-2787,,930,"Phoenix, AZ",980.0,"Tucson, AZ",29.093784602299888,88.94500013758487
455540,VALERO IN THE ZONE VI,28 N SIGNAL BUTTE RD,Apache Junction,AZ,85220,Southwest,"Phoenix, AZ",Pinal,33.4157791991,-111.5984108338,Valero,Valero,Valero,Valero,(480)984-9125,,930,"Phoenix, AZ",980.0,"Tucson, AZ",27.517134704231868,90.04967296364774
339750,CIRCLE K #3444,2933 S TOMAHAWK RD,Apache Junction,AZ,85119,Southwest,"Phoenix, AZ",Pinal,33.388147,-111.528275,Circle K,Unbranded,Circle K,Couche-Tard,(480)982-2701,,930,"Phoenix, AZ",980.0,"Tucson, AZ",31.748181277072035,86.71611925979032
170340,CIRCLE K #1989,3135 W SUPERSTITION BLVD,Apache Junction,AZ,85120,Southwest,"Phoenix, AZ",Pinal,33.422045,-111.580144,Circle K,Unbranded,Circle K,Couche-Tard,(480)983-5343,,930,"Phoenix, AZ",980.0,"Tucson, AZ",28.53515045262019,90.02627197030856
455541,CHEVRON,3265 S GOLDFIELD RD,Apache Junction,AZ,85119,Southwest,"Phoenix, AZ",Pinal,33.3853549398,-111.5109912836,Chevron,Chevron,Chevron,Chevron,(480)288-6640,,930,"Phoenix, AZ",980.0,"Tucson, AZ",32.762260156591644,86.16928971169237
455542,CHEVRON,3940 S IRONWOOD DR,Apache Junction,AZ,85120,Southwest,"Phoenix, AZ",Pinal,33.3791838375,-111.5639651046,Chevron,Chevron,Chevron,Chevron,(480)288-0393,,930,"Phoenix, AZ",980.0,"Tucson, AZ",29.803403807307436,86.93674635447094
592996,ARIZONA FUEL,420 N APACHE TRL,Apache Junction,AZ,85220,Southwest,"Phoenix, AZ",Pinal,33.4191742301,-111.5464607298,76,PSX,76,PSX,,,930,"Phoenix, AZ",980.0,"Tucson, AZ",30.486700449155073,89.09680479232061
685922,FIREBIRD #4915,5060 S DELAWARE DR,Apache Junction,AZ,85120,Southwest,"Phoenix, AZ",Pinal,33.369621,-111.572757,Unbranded,Unbranded,Unbranded,Unbranded,(602)286-1824,,930,"Phoenix, AZ",980.0,"Tucson, AZ",29.419635591089573,86.53417315499166
561571,FOUR SONS FOOD STORE #505,75 E 29TH AVE,Apache Junction,AZ,85119,Southwest,"Phoenix, AZ",Pinal,33.3882963089,-111.5457481506,Four Sons Food Store,Chevron,Chevron,Bro Retail Group Inc,(480)288-8401,,930,"Phoenix, AZ",980.0,"Tucson, AZ",30.748006457211094,87.1069567847862
170166,CIRCLE K #8746,85 W SUPERSTITION BLVD,Apache Junction,AZ,85120,Southwest,"Phoenix, AZ",Pinal,33.422047,-111.546505,Circle K,Unbranded,Circle K,Couche-Tard,(480)982-1005,,930,"Phoenix, AZ",980.0,"Tucson, AZ",30.471144805772866,89.28179536065782
321660,RICK MURPHYS SHELL,1198 W OLD US-66,Ash Fork,AZ,86320,Southwest,"Prescott, AZ",Yavapai,35.2185382646,-112.4986189802,Shell,Shell,Shell,Shell,(928)637-2580,,930,"Phoenix, AZ",910.0,"Las Vegas, NV",124.68835391624077,162.1311497591459
164572,ASHFORK SERVICE,202 E LEWIS AVE,Ash Fork,AZ,86320,Southwest,"Prescott, AZ",Yavapai,35.2234175129,-112.478916096,Mobil,ExxonMobil,Mobil,ExxonMobil,(928)637-2308,,930,"Phoenix, AZ",910.0,"Las Vegas, NV",124.8060094374347,163.00265099209204
314809,HILLSIDE TEXACO,925 E FRONTAGE RD,Ash Fork,AZ,86320,Southwest,"Prescott, AZ",Yavapai,35.2188320944,-112.4952835944,Texaco,Chevron,Texaco,Chevron,(928)637-2300,,930,"Phoenix, AZ",910.0,"Las Vegas, NV",124.67143494648394,162.29377414497665
589877,SHELL SERVICE STATION,93 E LEWIS AVE,Ash Fork,AZ,86320,Southwest,"Prescott, AZ",Yavapai,35.2229077717,-112.4788935913,Shell,Shell,Shell,Shell,(928)637-2268,,930,"Phoenix, AZ",910.0,"Las Vegas, NV",124.77117186504069,163.01837526372256
598075,COSTCO #0691,10000 W MCDOWELL RD,Avondale,AZ,85392,Southwest,"Phoenix, AZ",Maricopa,33.4662743384,-112.2741825249,Costco,Unbranded,Costco,Costco,(623)907-5663,,930,"Phoenix, AZ",980.0,"Tucson, AZ",11.605999305599086,114.346278272716
222465,CIRCLE K #0243,11025 W BUCKEYE RD,Avondale,AZ,85323,Southwest,"Phoenix, AZ",Maricopa,33.435271,-112.297718,Circle K,Unbranded,Circle K,Couche-Tard,(623)936-7261,,930,"Phoenix, AZ",980.0,"Tucson, AZ",12.931031874919109,113.67294812906744
622424,FRYS FUEL #7089 (DISCOUNT AVAILABLE),11425 W BUCKEYE RD,Avondale,AZ,85323,Southwest,"Phoenix, AZ",Maricopa,33.4350055554,-112.3038070569,Frys,Unbranded,Frys,Kroger,(623)907-1990,,930,"Phoenix, AZ",980.0,"Tucson, AZ",13.282559064480978,113.89872410969224
420274,CIRCLE K #1225,12301 W LOWER BUCKEYE RD,Avondale,AZ,85323,Southwest,"Phoenix, AZ",Maricopa,33.420302,-112.324117,Circle K,Unbranded,Circle K,Couche-Tard,(623)932-2370,,930,"Phoenix, AZ",980.0,"Tucson, AZ",14.552623918943763,113.96548272587704
664858,QUIKTRIP #423,13067 W THOMAS RD,Avondale,AZ,85392,Southwest,"Phoenix, AZ",Maricopa,33.4782811785,-112.3403951526,QuikTrip,Unbranded,QuikTrip,QuikTrip,(623)935-4167,,930,"Phoenix, AZ",980.0,"Tucson, AZ",15.49423261870718,117.52500591194917
202935,FOUR SONS FOOD STORE #605,13085 W RANCHO SANTA FE BLVD,Avondale,AZ,85392,Southwest,"Phoenix, AZ",Maricopa,33.4603788219,-112.3405392189,Four Sons Food Store,Chevron,Chevron,Bro Retail Group Inc,(623)535-3646,,930,"Phoenix, AZ",980.0,"Tucson, AZ",15.388215136894717,116.6259414426229
609859,SAMS CLUB #4830,1459 N DYSART RD,Avondale,AZ,85323,Southwest,"Phoenix, AZ",Maricopa,33.450995,-112.340515,Sams Club,Unbranded,Sams Club,Sams Club,(623)882-3859,,930,"Phoenix, AZ",980.0,"Tucson, AZ",15.366419802432963,116.15321213320388
657102,QUIKTRIP #1424,150 N AVONDALE BLVD,Avondale,AZ,85323,Southwest,"Phoenix, AZ",Maricopa,33.4466108351,-112.3070439038,QuikTrip,Unbranded,QuikTrip,QuikTrip,(623)882-2122,,930,"Phoenix, AZ",980.0,"Tucson, AZ",13.436575655444376,114.61311545031678
561578,CIRCLE K #9186,1595 N 115TH AVE,Avondale,AZ,85323,Southwest,"Phoenix, AZ",Maricopa,33.463647,-112.306014,Circle K,Unbranded,Circle K,Couche-Tard,(623)907-0012,,930,"Phoenix, AZ",980.0,"Tucson, AZ",13.416742023600738,115.43943890440173
456480,CIRCLE K #6645,1595 N DYSART RD,Avondale,AZ,85392,Southwest,"Phoenix, AZ",Maricopa,33.463763,-112.340553,Circle K,Shell,Shell,Couche-Tard,(623)935-0904,,930,"Phoenix, AZ",980.0,"Tucson, AZ",15.403056347003004,116.79703880272469
663616,FRYS FUEL #7112 (DISCOUNT AVAILABLE),2915 N DYSART RD,Avondale,AZ,85392,Southwest,"Phoenix, AZ",Maricopa,33.4792989548,-112.3403695222,Frys,Unbranded,Frys,Kroger,(623)925-0267,,930,"Phoenix, AZ",980.0,"Tucson, AZ",15.502208049091236,117.57562108827722
209987,CIRCLE K #0822,3 E MAIN ST,Avondale,AZ,85323,Southwest,"Phoenix, AZ",Maricopa,33.429103,-112.349134,Circle K,Unbranded,Circle K,Couche-Tard,(623)932-3861,,930,"Phoenix, AZ",980.0,"Tucson, AZ",15.920221312760548,115.40474309549136
250256,CHEVRON,3925 N 107TH AVE,Avondale,AZ,85323,Southwest,"Phoenix, AZ",Maricopa,33.4933727466,-112.2897191008,Chevron,Chevron,Chevron,Chevron,(623)872-9551,,930,"Phoenix, AZ",980.0,"Tucson, AZ",12.81624101343477,116.34202532608631
172514,CIRCLE K #2893,51 E VAN BUREN ST,Avondale,AZ,85323,Southwest,"Phoenix, AZ",Maricopa,33.449646,-112.349442,Circle K,Unbranded,Circle K,Couche-Tard,(623)932-1678,,930,"Phoenix, AZ",980.0,"Tucson, AZ",15.880398003231267,116.4401326664573
562911,J J GAS,627 E MAIN ST,Avondale,AZ,85323,Southwest,"Phoenix, AZ",Maricopa,33.4333369951,-112.3418020043,Unbranded,Unbranded,Unbranded,Unbranded,(623)932-5523,,930,"Phoenix, AZ",980.0,"Tucson, AZ",15.47618322317428,115.32152254861278
492077,PILOT TRAVEL CENTERS #459,900 N 99TH AVE,Avondale,AZ,85323,Southwest,"Phoenix, AZ",Maricopa,33.4570852252,-112.2736315996,Pilot,Unbranded,Pilot,Pilot,(623)936-0900,66022.0,930,"Phoenix, AZ",980.0,"Tucson, AZ",11.52458217212624,113.85130174221946
593545,S AND G CONVENIENCE,115 MAIN ST,Bagdad,AZ,86321,Southwest,"Prescott, AZ",Yavapai,34.5740977922,-113.1798158067,Unbranded,Unbranded,Unbranded,Unbranded,(928)633-4243,,930,"Phoenix, AZ",980.0,"Tucson, AZ",100.30710865644093,206.3404041288877
439749,CONOCO AT BAGDAD,117 MAIN ST,Bagdad,AZ,86321,Southwest,"Prescott, AZ",Yavapai,34.574657388,-113.1807039864,Conoco,PSX,Conoco,PSX,(928)633-6002,,930,"Phoenix, AZ",980.0,"Tucson, AZ",100.3690799417011,206.402168319473
322518,CHEVRON,I 10 & CASA BLANCA RD,Bapchule,AZ,85121,Southwest,"Phoenix, AZ",Pinal,33.1173216586,-111.8487460567,Chevron,Chevron,Chevron,Chevron,(520)315-3534,,930,"Phoenix, AZ",,,26.318084296873362,
611400,PILOT TRAVEL CENTERS #180,12500 W I-40,Bellemont,AZ,86015,Southwest,"Flagstaff, AZ",Coconino,35.2382343175,-111.8220068496,Pilot,Unbranded,Pilot,Pilot,(928)773-0180,63850.0,930,"Phoenix, AZ",617.0,"Ciniza, NM",124.50588978717524,294.8266519256633
457380,BENSON FUELS,103 W 4TH ST,Benson,AZ,85602,Southwest,"Sierra Vista-Douglas, AZ",Cochise,31.9683442455,-110.2977077977,Unbranded,Unbranded,Unbranded,Unbranded,(520)586-3094,,980,"Tucson, AZ",930.0,"Phoenix, AZ",43.34863199359568,145.3375372682156
457381,SPEEDWAY #2972,104 E 4TH ST,Benson,AZ,85602,Southwest,"Sierra Vista-Douglas, AZ",Cochise,31.9682108584,-110.2972303086,Speedway,Tesoro (UNB),Speedway,7-Eleven,(520)586-7944,,980,"Tucson, AZ",930.0,"Phoenix, AZ",43.37794605291014,145.36380109955047
603870,TEXACO,1090 S HIGHWAY 80,Benson,AZ,85602,Southwest,"Sierra Vista-Douglas, AZ",Cochise,31.9497373168,-110.2862773029,Texaco,Chevron,Texaco,Chevron,(520)586-1057,,980,"Tucson, AZ",930.0,"Phoenix, AZ",44.49428503337999,146.7226316573658
73641,CIRCLE K #2945,201 E 4TH ST,Benson,AZ,85602,Southwest,"Sierra Vista-Douglas, AZ",Cochise,31.968011,-110.295854,Circle K,Unbranded,Circle K,Couche-Tard,(520)586-3411,,980,"Tucson, AZ",930.0,"Phoenix, AZ",43.457239839923474,145.43046266132833
572026,QUICK PIC MARKET,62 N OAK DR,Benson,AZ,85602,Southwest,"Sierra Vista-Douglas, AZ",Cochise,31.964066381,-110.4325999652,Chevron,Chevron,Chevron,Chevron,(520)586-2163,,980,"Tucson, AZ",930.0,"Phoenix, AZ",36.4162386540702,140.09219138256682
457382,SHELL,640 S HIGHWAY 90,Benson,AZ,85602,Southwest,"Sierra Vista-Douglas, AZ",Cochise,31.9623687255,-110.346460868,Shell,Shell,Shell,Shell,(520)586-2053,,980,"Tucson, AZ",930.0,"Phoenix, AZ",40.93684835883999,143.63475665512198
410881,LOVES TRAVEL STOPS #460,643 S HIGHWAY 90,Benson,AZ,85602,Southwest,"Sierra Vista-Douglas, AZ",Cochise,31.9623209732,-110.3450918197,Loves,Unbranded,Loves,Loves,(520)586-8702,63855.0,980,"Tucson, AZ",930.0,"Phoenix, AZ",41.01031596988813,143.69279959637848
200995,CHEVRON,680 N OCOTILLO RD,Benson,AZ,85602,Southwest,"Sierra Vista-Douglas, AZ",Cochise,31.9765569803,-110.3066046271,Chevron,Chevron,Chevron,Chevron,(520)586-7231,,980,"Tucson, AZ",930.0,"Phoenix, AZ",42.64204229734647,144.56741399355204
403151,CIRCLE K #0761,705 E 4TH ST,Benson,AZ,85602,Southwest,"Sierra Vista-Douglas, AZ",Cochise,31.965929,-110.285491,Circle K,Unbranded,Circle K,Couche-Tard,(520)586-3900,,980,"Tucson, AZ",930.0,"Phoenix, AZ",44.07073468359177,145.9610967603068
457741,GOOD 2 GO #524,101 ARIZONA ST,Bisbee,AZ,85603,Southwest,"Sierra Vista-Douglas, AZ",Cochise,31.4112167985,-109.8786138294,Good 2 Go,PSX,76,Good 2 Go,(520)432-2763,,980,"Tucson, AZ",930.0,"Phoenix, AZ",85.3511086706325,190.27389981661753
217429,CHEVRON,1288 HIGHWAY 92,Bisbee,AZ,85603,Southwest,"Sierra Vista-Douglas, AZ",Cochise,31.3971006316,-109.9289318322,Chevron,Chevron,Chevron,Chevron,(520)432-2191,,980,"Tucson, AZ",930.0,"Phoenix, AZ",83.81039224233223,189.04880788876514
675446,BISBEE BEVERAGE,1476 W HIGHWAY 92,Bisbee,AZ,85603,Southwest,"Sierra Vista-Douglas, AZ",Cochise,31.3949622,-109.9341132,Unbranded,Unbranded,Unbranded,Unbranded,(520)432-9063,,980,"Tucson, AZ",930.0,"Phoenix, AZ",83.68915644087036,188.96088285476768
403160,CIRCLE K #0230,401 GARDEN AVE,Bisbee,AZ,85603,Southwest,"Sierra Vista-Douglas, AZ",Cochise,31.444339,-109.923523,Circle K,Unbranded,Circle K,Couche-Tard,(520)432-4742,,980,"Tucson, AZ",930.0,"Phoenix, AZ",81.85135225762613,186.80405602995992
457742,SPEEDWAY #2975,906 STATE HIGHWAY 92,Bisbee,AZ,85603,Southwest,"Sierra Vista-Douglas, AZ",Cochise,31.4021677546,-109.9182929176,Speedway,Tesoro (UNB),Speedway,7-Eleven,(520)432-3113,,980,"Tucson, AZ",930.0,"Phoenix, AZ",84.03131344909279,189.19583034430525
40892,CANYON SERVICE CENTER,34400 OLD BLACK CANYON HWY,Black Canyon City,AZ,85324,Southwest,"Prescott, AZ",Yavapai,34.0668512755,-112.1511740508,Shell,Shell,Shell,Shell,(623)374-5236,,930,"Phoenix, AZ",980.0,"Tucson, AZ",42.962846471779585,144.46832898523857
642266,ROCKS SPRINGS 76 GAS,35769 S OLD BLACK CANYON HWY,Black Canyon City,AZ,85324,Southwest,"Prescott, AZ",Yavapai,34.0480288875,-112.1488787209,76,PSX,76,PSX,(623)374-5794,,930,"Phoenix, AZ",980.0,"Tucson, AZ",41.655650479993014,143.26293098475344
245761,CHEVRON,101 INDIAN ROUTE 29,Blue Gap,AZ,86520,Southwest,,Navajo,36.0753619538,-109.9888878314,Chevron,Chevron,Chevron,Chevron,(928)725-3460,,617,"Ciniza, NM",614.0,"Bloomfield, NM",202.04950169449262,119.70138739636505
596510,ROADRUNNER MARKET,27646 HIGHWAY 72,Bouse,AZ,85325,Southwest,,La Paz,33.9331172075,-114.0067318341,Unbranded,Unbranded,Unbranded,Unbranded,(928)851-2400,,930,"Phoenix, AZ",900.0,"Imperial, CA",116.05268283054002,117.2866886808389
571087,Dwaynes Fresh Jerky,1120 W BUSINESS 10,Bowie,AZ,85605,Southwest,"Sierra Vista-Douglas, AZ",Cochise,32.3300008097,-109.5027866702,Unbranded,Unbranded,Unbranded,Unbranded,(520)847-2584,,980,"Tucson, AZ",640.0,"El Paso, TX",86.3093178786666,181.04725109058984
40541,CHEVRON #383948,1275 E BUSINESS LOOP,Bowie,AZ,85605,Southwest,"Sierra Vista-Douglas, AZ",Cochise,32.318991678,-109.4522786835,Chevron,Chevron,Chevron,Chevron,(520)847-2288,,980,"Tucson, AZ",640.0,"El Paso, TX",89.19475204796875,178.0050942963947
604105,FRYS FUEL #7675 (DISCOUNT AVAILABLE),1300 S WATSON RD,Buckeye,AZ,85326,Southwest,"Phoenix, AZ",Maricopa,33.4340045378,-112.55672928,Frys,Unbranded,Frys,Kroger,(623)691-6600,,930,"Phoenix, AZ",980.0,"Tucson, AZ",27.85123905790783,124.2712799275459
5209,J J FOOD MART,1419 N JACKRABBIT TRL,Buckeye,AZ,85396,Southwest,"Phoenix, AZ",Maricopa,33.4635668322,-112.4783556156,Chevron,Chevron,Chevron,Chevron,(623)853-0187,,930,"Phoenix, AZ",980.0,"Tucson, AZ",23.33413806137567,122.35898830049537
655005,FAST MARKET #4608,1520 N VERRADO WAY,Buckeye,AZ,85396,Southwest,"Phoenix, AZ",Maricopa,33.464977,-112.504865,FastMarket,Shell,Shell,GPM Investments,(623)853-8591,,930,"Phoenix, AZ",980.0,"Tucson, AZ",24.865017486208217,123.52863976484133
629558,LOVES TRAVEL STOPS #280,1610 S MILLER RD,Buckeye,AZ,85326,Southwest,"Phoenix, AZ",Maricopa,33.4313613541,-112.5921842131,Loves,Unbranded,Loves,Loves,(623)386-7462,67393.0,930,"Phoenix, AZ",980.0,"Tucson, AZ",29.901388916553106,125.6799898086187
645974,QUIKTRIP #492,1850 S MILLER RD,Buckeye,AZ,85326,Southwest,"Phoenix, AZ",Maricopa,33.4295157342,-112.5914549089,QuikTrip,Unbranded,QuikTrip,QuikTrip,(623)386-8855,68874.0,930,"Phoenix, AZ",980.0,"Tucson, AZ",29.864987552786605,125.5643555126444
624165,SHELL,19491 N CANYON SPRINGS BLVD,Buckeye,AZ,85396,Southwest,"Phoenix, AZ",Maricopa,33.6612059236,-112.6157852204,Shell,Shell,Shell,Shell,,,930,"Phoenix, AZ",980.0,"Tucson, AZ",34.489200683414154,137.60833955494576
687854,FRYS FUEL #692,19594 W INDIAN SCHOOL  RD,Buckeye,AZ,85396,Southwest,"Phoenix, AZ",Maricopa,33.4931536128,-112.4809671892,Frys,Unbranded,Frys,Kroger,(623)265-7214,,930,"Phoenix, AZ",980.0,"Tucson, AZ",23.660097424182204,123.89676869451341
630074,SPEED SMART,2075 S MILLER RD,Buckeye,AZ,85326,Southwest,"Phoenix, AZ",Maricopa,33.4275994865,-112.5904103701,Speed Smart,Chevron,Chevron,Speed Smart,(623)474-6262,68268.0,930,"Phoenix, AZ",980.0,"Tucson, AZ",29.8112358490642,125.43185697604272
246649,SHELL,26602 W US HIGHWAY 85,Buckeye,AZ,85326,Southwest,"Phoenix, AZ",Maricopa,33.3704182,-112.6231570355,Shell,Shell,Shell,Shell,(623)386-1606,,930,"Phoenix, AZ",980.0,"Tucson, AZ",32.13022928457323,124.32663784142845
172534,CIRCLE K #0820,307 E US HIGHWAY 85,Buckeye,AZ,85326,Southwest,"Phoenix, AZ",Maricopa,33.372876,-112.574009,Circle K,Unbranded,Circle K,Couche-Tard,(623)386-2827,,930,"Phoenix, AZ",980.0,"Tucson, AZ",29.308278448845947,122.25133575724408
458941,SHELL,501 E MONROE AVE,Buckeye,AZ,85326,Southwest,"Phoenix, AZ",Maricopa,33.3702731827,-112.5847466373,Shell,Shell,Shell,Shell,(623)386-2221,,930,"Phoenix, AZ",980.0,"Tucson, AZ",29.95024618497845,122.61050091605676
628983,CIRCLE K #3397,537 S WATSON RD,Buckeye,AZ,85326,Southwest,"Phoenix, AZ",Maricopa,33.442211,-112.555914,Circle K,Unbranded,Circle K,Couche-Tard,(623)327-2772,,930,"Phoenix, AZ",980.0,"Tucson, AZ",27.788439846657514,124.61589062946781
403075,CIRCLE K #1198,721 N 195TH AVE,Buckeye,AZ,85326,Southwest,"Phoenix, AZ",Maricopa,33.455117,-112.478359,Circle K,Unbranded,Circle K,Couche-Tard,(623)853-0626,,930,"Phoenix, AZ",980.0,"Tucson, AZ",23.316543107184657,121.95368718390296
449725,SPEED SMART,825 E MONROE AVE,Buckeye,AZ,85326,Southwest,"Phoenix, AZ",Maricopa,33.3703781179,-112.5789184272,Speed Smart,Chevron,Chevron,Speed Smart,(623)386-2504,,930,"Phoenix, AZ",980.0,"Tucson, AZ",29.61830730725855,122.35718662474525
684783,QUIKTRIP #1407,900 S WATSON RD,Buckeye,AZ,85326,Southwest,"Phoenix, AZ",Maricopa,33.438436,-112.557139,QuikTrip,Unbranded,QuikTrip,QuikTrip,,,930,"Phoenix, AZ",980.0,"Tucson, AZ",27.86489030676057,124.4935755350792
403056,CIRCLE K #0420,1062 HIGHWAY 95,Bullhead City,AZ,86429,Southwest,"Lake Havasu-Kingman, AZ",Mohave,35.149984,-114.567703,Circle K,Unbranded,Circle K,Couche-Tard,(928)754-2242,,910,"Las Vegas, NV",860.0,"Barstow, CA",77.44710349870313,140.0251968691304
600834,FASTRIP FOOD STORE #34,1131 HIGHWAY 95,Bullhead City,AZ,86429,Southwest,"Lake Havasu-Kingman, AZ",Mohave,35.145786668,-114.5690768294,Fastrip Food Store,Unbranded,Fastrip Food Store,Jaco Oil Co,(928)754-1017,,910,"Las Vegas, NV",860.0,"Barstow, CA",77.67960844360591,139.91552200506976
638511,MINIT SERVE,1251 BASELINE RD,Bullhead City,AZ,86442,Southwest,"Lake Havasu-Kingman, AZ",Mohave,35.1155658063,-114.6036331026,Unbranded,Unbranded,Unbranded,Unbranded,(928)763-6600,,910,"Las Vegas, NV",860.0,"Barstow, CA",78.82767487244698,137.75476319875506
222344,BEYOND FOOD MART CARWASH,1626 HIGHWAY 95,Bullhead City,AZ,86442,Southwest,"Lake Havasu-Kingman, AZ",Mohave,35.126244,-114.577248,Chevron,Chevron,Chevron,Chevron,(928)763-1217,,910,"Las Vegas, NV",860.0,"Barstow, CA",78.72809161632904,139.31238054024763
623590,SMITHS FUEL #9191 (DISCOUNT AVAILABLE),1775 LAKESIDE DR,Bullhead City,AZ,86442,Southwest,"Lake Havasu-Kingman, AZ",Mohave,35.1075166265,-114.6139563919,Smiths,Unbranded,Smiths,Kroger,(928)763-8686,,910,"Las Vegas, NV",860.0,"Barstow, CA",79.12438805304689,137.1203383854782
600682,TERRIBLE HERBST #180,1815 HIGHWAY 95,Bullhead City,AZ,86442,Southwest,"Lake Havasu-Kingman, AZ",Mohave,35.1207833247,-114.5897501775,Terrible Herbst,Unbranded,Terrible Herbst,Terrible Herbst,(928)758-6080,,910,"Las Vegas, NV",860.0,"Barstow, CA",78.79649647774572,138.57128854355392
616308,ARCO,2198 HIGHWAY 95,Bullhead City,AZ,86442,Southwest,"Lake Havasu-Kingman, AZ",Mohave,35.1076833148,-114.5975698882,ARCO,Tesoro (UNB),ARCO,Marathon,,,910,"Las Vegas, NV",860.0,"Barstow, CA",79.46171664920105,138.0435739199016
624780,FASTRIP FOOD STORE #18,2199 HIGHWAY 95,Bullhead City,AZ,86442,Southwest,"Lake Havasu-Kingman, AZ",Mohave,35.1080652891,-114.5985560882,Fastrip Food Store,Unbranded,Fastrip Food Store,Jaco Oil Co,(928)758-2070,,910,"Las Vegas, NV",860.0,"Barstow, CA",79.41610057520226,137.99055757474568
483192,CIRCLE K #5594,2425 ADOBE RD,Bullhead City,AZ,86442,Southwest,"Lake Havasu-Kingman, AZ",Mohave,35.075083,-114.554381,Circle K,Unbranded,Circle K,Couche-Tard,(928)704-9404,,910,"Las Vegas, NV",860.0,"Barstow, CA",82.485823014083,140.28523860453979
200774,CHEVRON,2540 HIGHWAY 95,Bullhead City,AZ,86442,Southwest,"Lake Havasu-Kingman, AZ",Mohave,35.0935563775,-114.5976156698,Chevron,Chevron,Chevron,Chevron,(928)763-5544,,910,"Las Vegas, NV",860.0,"Barstow, CA",80.36425264434986,137.9526996497086
216827,CIRCLE K #1765,2551 HIGHWAY 95,Bullhead City,AZ,86442,Southwest,"Lake Havasu-Kingman, AZ",Mohave,35.093064,-114.598477,Circle K,Unbranded,Circle K,Couche-Tard,(928)763-5533,,910,"Las Vegas, NV",860.0,"Barstow, CA",80.37746704593879,137.90123209457417
604548,MAVERIK COUNTRY STORE #356,2612 DESERT FOOTHILLS BLVD,Bullhead City,AZ,86429,Southwest,"Lake Havasu-Kingman, AZ",Mohave,35.1457649838,-114.544699478,Maverik,Unbranded,Maverik,Maverik,(928)754-2600,,910,"Las Vegas, NV",860.0,"Barstow, CA",78.25539064881704,141.284242306151
459021,GAS N GRUB,2996 HIGHWAY 68,Bullhead City,AZ,86429,Southwest,"Lake Havasu-Kingman, AZ",Mohave,35.1902388177,-114.5278169789,Unbranded,Unbranded,Unbranded,Unbranded,(928)754-6888,,910,"Las Vegas, NV",860.0,"Barstow, CA",75.90783456450369,142.6000479918377
202859,WOODYS FOOD STORE #132,3713 HIGHWAY 95,Bullhead City,AZ,86442,Southwest,"Lake Havasu-Kingman, AZ",Mohave,35.0514625456,-114.5894511039,Woodys Food Store,Chevron,Chevron,Woodys Enterprises LTD,(928)704-0127,,910,"Las Vegas, NV",860.0,"Barstow, CA",83.23545469547975,138.1911059521639
208459,SAMS CLUB #4915,600 HIGHWAY 95,Bullhead City,AZ,86429,Southwest,"Lake Havasu-Kingman, AZ",Mohave,35.166581,-114.565051,Sams Club,Unbranded,Sams Club,Sams Club,(928)754-3900,,910,"Las Vegas, NV",860.0,"Barstow, CA",76.46633195382202,140.3083418392115
334541,CIRCLE K #0247,760 MARINA BLVD,Bullhead City,AZ,86442,Southwest,"Lake Havasu-Kingman, AZ",Mohave,35.100458,-114.62136,Circle K,Unbranded,Circle K,Couche-Tard,(928)758-4861,,910,"Las Vegas, NV",860.0,"Barstow, CA",79.42423206973032,136.6582323790569
623989,APACHE MARKET,297 E US HIGHWAY 70,Bylas,AZ,85530,Southwest,,Graham,33.1193643532,-110.1094822235,Unbranded,Unbranded,Unbranded,Unbranded,(928)475-4452,,930,"Phoenix, AZ",980.0,"Tucson, AZ",115.72951495250298,79.82547666684523
603061,SPEEDYS TRUCKSTOP,101 HIGHWAY 89,Cameron,AZ,86020,Southwest,"Flagstaff, AZ",Coconino,35.8506720442,-111.428092574,Unbranded,Unbranded,Unbranded,Unbranded,(928)679-2333,60189.0,930,"Phoenix, AZ",791.0,"Cedar City, UT",170.0017555152375,155.27704229125365
449421,SHELL,54 N OF FLAGSTAFF HWY,Cameron,AZ,86020,Southwest,"Flagstaff, AZ",Coconino,35.8744659368,-111.4127980222,Shell,Shell,Shell,Shell,(928)679-2257,,930,"Phoenix, AZ",791.0,"Cedar City, UT",171.79426173311217,154.43402252515284
622083,CHEVRON,HIGHWAY 89 & HIGHWAY 64,Cameron,AZ,86020,Southwest,"Flagstaff, AZ",Coconino,35.8534463458,-111.4256040432,Chevron,Chevron,Chevron,Chevron,(928)679-2281,,930,"Phoenix, AZ",791.0,"Cedar City, UT",170.21936013661497,155.20063756790557
621597,GAP EXPRESS 525,HWY MARKER 498 HWY 89,Cameron,AZ,86020,Southwest,"Flagstaff, AZ",Coconino,36.3037292484,-111.460094329,Sinclair,Sinclair,Sinclair,Sinclair,(928)283-8932,,930,"Phoenix, AZ",791.0,"Cedar City, UT",200.34047513318242,129.7104101363096
414849,MINUTE MART #48,1673 W HWY 260,Camp Verde,AZ,86322,Southwest,"Prescott, AZ",Yavapai,34.575117367,-111.8834024498,Shell,Shell,Shell,Shell,(928)567-3886,,930,"Phoenix, AZ",980.0,"Tucson, AZ",78.6150516459751,170.7937999873402
417779,GOOD 2 GO #507,1897 PUEBLO RIDGE RD,Camp Verde,AZ,86322,Southwest,"Prescott, AZ",Yavapai,34.58065,-111.88616,Good 2 Go,Chevron,Chevron,Good 2 Go,(928)567-4300,,930,"Phoenix, AZ",980.0,"Tucson, AZ",78.97193838005538,171.20593008857992
459368,ERNIES MINI MART,20 E HIGHWAY 260,Camp Verde,AZ,86322,Southwest,"Prescott, AZ",Yavapai,34.5552494309,-111.8535897259,76,PSX,76,PSX,(928)567-6270,,930,"Phoenix, AZ",980.0,"Tucson, AZ",77.5157093301327,168.96569812067955
403070,CIRCLE K #1010,24 FINNIE FLATS RD,Camp Verde,AZ,86322,Southwest,"Prescott, AZ",Yavapai,34.565634,-111.855082,Circle K,Unbranded,Circle K,Couche-Tard,(928)567-5194,,930,"Phoenix, AZ",980.0,"Tucson, AZ",78.20988847498874,169.67513534393208
415457,CHEVRON,320 CASTLE LN,Camp Verde,AZ,86322,Southwest,"Prescott, AZ",Yavapai,34.6098010312,-111.8601451706,Chevron,Chevron,Chevron,Chevron,(928)554-0731,,930,"Phoenix, AZ",980.0,"Tucson, AZ",81.17896804825499,172.67172474877097
654767,YAVAPAI APACHE MARKET,3400 W STATE ROUTE 260,Camp Verde,AZ,86322,Southwest,"Prescott, AZ",Yavapai,34.6092089118,-111.9110268667,Conoco,PSX,Conoco,PSX,(928)667-8881,,930,"Phoenix, AZ",980.0,"Tucson, AZ",80.75017102446564,173.52315466713264
564156,MAVERIK COUNTRY STORE #294,541 W FINNIE FLAT RD,Camp Verde,AZ,86322,Southwest,"Prescott, AZ",Yavapai,34.5654462436,-111.8635298532,Maverik,Unbranded,Maverik,Maverik,(928)567-7373,,930,"Phoenix, AZ",980.0,"Tucson, AZ",78.12095471392202,169.80925312471413
680158,CIRCLE K #3489,700 W FINNIE FLAT RD,Camp Verde,AZ,86322,Southwest,"Prescott, AZ",Yavapai,34.565994,-111.866007,Circle K,Unbranded,Circle K,Couche-Tard,(928)567-8861,,930,"Phoenix, AZ",980.0,"Tucson, AZ",78.13658550747186,169.8884695903471
459738,GOOD 2 GO #504,1000 W GILA BEND HWY,Casa Grande,AZ,85122,Southwest,"Phoenix, AZ",Pinal,32.8797852923,-111.7750021421,Good 2 Go,PSX,76,Good 2 Go,(520)426-9569,,930,"Phoenix, AZ",980.0,"Tucson, AZ",42.92780009453323,65.07445318373489
626738,FRYS FUEL #7048 (DISCOUNT AVAILABLE),1385 E FLORENCE BLVD,Casa Grande,AZ,85122,Southwest,"Phoenix, AZ",Pinal,32.8792670014,-111.7294640176,Frys,Unbranded,Frys,Kroger,(520)836-1701,,930,"Phoenix, AZ",980.0,"Tucson, AZ",44.08694646738099,63.17618388407654
665435,CIRCLE K #3485,1415 E FLORENCE BLVD,Casa Grande,AZ,85122,Southwest,"Phoenix, AZ",Pinal,32.879191,-111.726614,Circle K,Unbranded,Circle K,Couche-Tard,,,930,"Phoenix, AZ",980.0,"Tucson, AZ",44.1663884457514,63.05703078605031
403069,CIRCLE K #0867,1587 N TREKELL RD,Casa Grande,AZ,85122,Southwest,"Phoenix, AZ",Pinal,32.893801,-111.740368,Circle K,Unbranded,Circle K,Couche-Tard,(520)836-7214,,930,"Phoenix, AZ",980.0,"Tucson, AZ",42.90546517364536,64.33729630202156
591794,FASTRIP FOOD STORE #651,1620 N PINAL AVE,Casa Grande,AZ,85122,Southwest,"Phoenix, AZ",Pinal,32.8944098022,-111.7567786072,Fastrip Food Store,Unbranded,Fastrip Food Store,Jaco Oil Co,(520)426-3725,,930,"Phoenix, AZ",980.0,"Tucson, AZ",42.44909311826355,65.03324121249355
611755,QUIKTRIP #482,1627 N PINAL AVE,Casa Grande,AZ,85122,Southwest,"Phoenix, AZ",Pinal,32.8947408899,-111.7577305361,QuikTrip,Unbranded,QuikTrip,QuikTrip,(520)876-9050,,930,"Phoenix, AZ",980.0,"Tucson, AZ",42.40467068938345,65.08834191565148
554002,SAFEWAY #1706,1637 N TREKELL RD,Casa Grande,AZ,85122,Southwest,"Phoenix, AZ",Pinal,32.8959873378,-111.7404528318,Safeway,Unbranded,Safeway,Albertsons,(520)421-7447,,930,"Phoenix, AZ",980.0,"Tucson, AZ",42.76826759000285,64.44932246737139
655801,CIRCLE K #3385,1776 E MCCARTNEY RD,Casa Grande,AZ,85122,Southwest,"Phoenix, AZ",Pinal,32.938718,-111.709397,Circle K,Unbranded,Circle K,Couche-Tard,(520)836-5157,,930,"Phoenix, AZ",980.0,"Tucson, AZ",41.04570348029534,65.408572695109
212417,CHEVRON #301717,2012 N TREKELL RD,Casa Grande,AZ,85122,Southwest,"Phoenix, AZ",Pinal,32.9091696716,-111.7395754964,Chevron,Chevron,Chevron,Chevron,(520)421-0286,,930,"Phoenix, AZ",980.0,"Tucson, AZ",41.98002409431564,65.07273785235245
638182,CHEVRON,2106 E FLORENCE BLVD,Casa Grande,AZ,85222,Southwest,"Phoenix, AZ",Pinal,32.8800435081,-111.6956780827,Chevron,Chevron,Chevron,Chevron,(520)560-8700,,930,"Phoenix, AZ",980.0,"Tucson, AZ",44.9571639528013,61.862391323648176
653637,CIRCLE K #1668,2182 E FLORENCE BLVD,Casa Grande,AZ,85222,Southwest,"Phoenix, AZ",Pinal,32.8800230327,-111.6931342078,Circle K,Unbranded,Circle K,Couche-Tard,(520)836-1923,,930,"Phoenix, AZ",980.0,"Tucson, AZ",45.030202856407996,61.7608805437868
403089,CIRCLE K #2930,2194 N TREKELL RD,Casa Grande,AZ,85122,Southwest,"Phoenix, AZ",Pinal,32.915877,-111.739602,Circle K,Unbranded,Circle K,Couche-Tard,(520)836-1486,,930,"Phoenix, AZ",980.0,"Tucson, AZ",41.568171205408916,65.41129483140256
534051,GOOD 2 GO #517,2234 E FLORENCE BLVD,Casa Grande,AZ,85122,Southwest,"Phoenix, AZ",Pinal,32.88001966,-111.6905656,Good 2 Go,PSX,76,Good 2 Go,(520)421-0354,,930,"Phoenix, AZ",980.0,"Tucson, AZ",45.10327692496004,61.65945248709481
600094,ARCO,2245 E FLORENCE BLVD,Casa Grande,AZ,85122,Southwest,"Phoenix, AZ",Pinal,32.8791554125,-111.6901488789,ARCO,Tesoro (UNB),ARCO,Marathon,(520)421-2263,,930,"Phoenix, AZ",980.0,"Tucson, AZ",45.16718256069486,61.599186223533266
459743,CIRCLE K #3470,2382 N PINAL AVE,Casa Grande,AZ,85122,Southwest,"Phoenix, AZ",Pinal,32.922995,-111.75635,Circle K,Unbranded,Circle K,Couche-Tard,(520)836-6100,,930,"Phoenix, AZ",980.0,"Tucson, AZ",40.686743543567054,66.43539823691137
622901,FRYS FUEL #7669 (DISCOUNT AVAILABLE),2858 N PINAL AVE,Casa Grande,AZ,85122,Southwest,"Phoenix, AZ",Pinal,32.9407249808,-111.7559694718,Frys,Unbranded,Frys,Kroger,(520)426-4700,,930,"Phoenix, AZ",980.0,"Tucson, AZ",39.60682080175663,67.31502974792647
492230,LOVES TRAVEL STOPS #265,5000 S SUNLAND GIN RD,Casa Grande,AZ,85222,Southwest,"Phoenix, AZ",Pinal,32.8065179206,-111.6722900478,Loves,Unbranded,Loves,Loves,(520)423-2015,63732.0,930,"Phoenix, AZ",980.0,"Tucson, AZ",50.07476143630886,57.27126449161488
403087,CIRCLE K #2910,822 E JIMMIE KERR BLVD,Casa Grande,AZ,85122,Southwest,"Phoenix, AZ",Pinal,32.871954,-111.748064,Circle K,Unbranded,Circle K,Couche-Tard,(520)426-9336,,930,"Phoenix, AZ",980.0,"Tucson, AZ",44.06772218328203,63.57839280362579
481239,HAPPY HARRYS CARWASH AND MARKET,29650 N TATUM BLVD,Cave Creek,AZ,85331,Southwest,"Phoenix, AZ",Maricopa,33.7548695498,-111.9894535654,Chevron,Chevron,Chevron,Chevron,(480)513-7200,,930,"Phoenix, AZ",980.0,"Tucson, AZ",21.7281329721431,121.11226619666876
403019,CIRCLE K #5295,29816 N TATUM BLVD,Cave Creek,AZ,85331,Southwest,"Phoenix, AZ",Maricopa,33.755814,-111.991678,Circle K,Unbranded,Circle K,Couche-Tard,(480)585-6539,,930,"Phoenix, AZ",980.0,"Tucson, AZ",21.763506840172987,121.23178298225623
603679,SAFEWAY #1543,29834 N CAVE CREEK RD,Cave Creek,AZ,85331,Southwest,"Phoenix, AZ",Maricopa,33.7567950738,-111.9917040609,Safeway,Unbranded,Safeway,Albertsons,(480)563-9335,,930,"Phoenix, AZ",980.0,"Tucson, AZ",21.829344565929052,121.29159946791344
541131,BG #100,31414 N CAVE CREEK RD,Cave Creek,AZ,85331,Southwest,"Phoenix, AZ",Maricopa,33.7708177899,-111.9819479354,Shell,Shell,Shell,Shell,(480)488-9242,,930,"Phoenix, AZ",980.0,"Tucson, AZ",22.89941284917242,121.86528100483945
447135,SHELL,4740 E DYNAMITE BLVD,Cave Creek,AZ,85331,Southwest,"Phoenix, AZ",Maricopa,33.7416237813,-111.9786353804,Shell,Shell,Shell,Shell,(480)419-9037,,930,"Phoenix, AZ",980.0,"Tucson, AZ",20.991364344461886,120.00992473647
518310,CIRCLE K #5954,4815 E CAREFREE HWY,Cave Creek,AZ,85331,Southwest,"Phoenix, AZ",Maricopa,33.798579,-111.977609,Circle K,Shell,Shell,Couche-Tard,(480)575-5482,,930,"Phoenix, AZ",980.0,"Tucson, AZ",24.823987349302868,123.4296414200719
289501,FOUR SONS FOOD STORE #602,5439 E CAREFREE HWY,Cave Creek,AZ,85331,Southwest,"Phoenix, AZ",Maricopa,33.7987857638,-111.9647742705,Four Sons Food Store,Chevron,Chevron,Bro Retail Group Inc,(480)575-8165,,930,"Phoenix, AZ",980.0,"Tucson, AZ",25.013163943319807,123.09392090377477
441774,CIRCLE K #5598,6210 E CAVE CREEK RD,Cave Creek,AZ,85331,Southwest,"Phoenix, AZ",Maricopa,33.83237,-111.947215,Circle K,Unbranded,Circle K,Couche-Tard,(480)575-8898,,930,"Phoenix, AZ",980.0,"Tucson, AZ",27.515607540899772,124.6838395246265
403018,CIRCLE K #5281,6802 E CAVE CREEK RD,Cave Creek,AZ,85331,Southwest,"Phoenix, AZ",Maricopa,33.832016,-111.934489,Circle K,Unbranded,Circle K,Couche-Tard,(480)488-4144,,930,"Phoenix, AZ",980.0,"Tucson, AZ",27.695235311599678,124.33067299051133
459812,ARANKI SHELL,7201 E CAVE CREEK RD,Cave Creek,AZ,85331,Southwest,"Phoenix, AZ",Maricopa,33.8268850543,-111.9235971825,Shell,Shell,Shell,Shell,(480)488-3451,,930,"Phoenix, AZ",980.0,"Tucson, AZ",27.546512709167345,123.73280732789533
447248,CHAMBERS MOBIL,I-40 & HWY 191 EXIT 333,Chambers,AZ,86502,Southwest,,Apache,35.1904883435,-109.4333281599,Mobil,ExxonMobil,Mobil,ExxonMobil,,,617,"Ciniza, NM",614.0,"Bloomfield, NM",159.94306968006856,132.43985587712785
605461,NAVAJO TRAVEL CENTER,IH 40 & HIGHWAY 66,Chambers,AZ,86502,Southwest,,Apache,35.1283382436,-109.5411519706,Shell,Shell,Shell,Shell,(928)688-2334,64622.0,617,"Ciniza, NM",614.0,"Bloomfield, NM",165.95987240593396,139.56377041857198
625198,KLAGETOH EXPRESS #512,VALLEY RD & HWY 191,Chambers,AZ,86502,Southwest,,Apache,35.5010118575,-109.5278042771,Unbranded,Unbranded,Unbranded,Unbranded,(928)652-3114,,617,"Ciniza, NM",614.0,"Bloomfield, NM",167.2839730356689,119.83382328776128
644638,FRYS FUEL #7072 (DISCOUNT AVAILABLE),101 E WILLIAMS FIELD RD,Chandler,AZ,85225,Southwest,"Phoenix, AZ",Maricopa,33.3060790197,-111.7873766674,Frys,Unbranded,Frys,Kroger,(602)850-0353,,930,"Phoenix, AZ",980.0,"Tucson, AZ",19.24133364620492,88.51250265692367
307667,CIRCLE K #6651,1010 E CHANDLER BLVD,Chandler,AZ,85225,Southwest,"Phoenix, AZ",Maricopa,33.306703,-111.82351,Circle K,Shell,Shell,Couche-Tard,(480)857-9876,,930,"Phoenix, AZ",980.0,"Tucson, AZ",17.45752492413043,89.6859718393439
511529,CHEVRON,1010 E PECOS RD,Chandler,AZ,85225,Southwest,"Phoenix, AZ",Maricopa,33.2923428389,-111.8237791865,Chevron,Chevron,Chevron,Chevron,(480)899-1273,,930,"Phoenix, AZ",980.0,"Tucson, AZ",18.021251008803386,88.86979714812998
158361,CIRCLE K #9161,1015 N RURAL RD,Chandler,AZ,85226,Southwest,"Phoenix, AZ",Maricopa,33.320508,-111.927637,Circle K,Unbranded,Circle K,Couche-Tard,(480)820-2010,,930,"Phoenix, AZ",980.0,"Tucson, AZ",12.223104917113497,93.91620881840693
684320,CIRCLE K 41604,1015 S COOPER RD,Chandler,AZ,85224,Southwest,"Phoenix, AZ",Maricopa,33.2911267845,-111.8063846477,Circle K,Unbranded,Circle K,Couche-Tard,,,930,"Phoenix, AZ",980.0,"Tucson, AZ",18.883390910482586,88.24253960762469
322119,SHELL,10356 E RIGGS RD,Chandler,AZ,85248,Southwest,"Phoenix, AZ",Maricopa,33.2186842175,-111.8589834286,Shell,Shell-TSO,Shell,Marathon,(480)802-2611,,930,"Phoenix, AZ",980.0,"Tucson, AZ",20.150085962610493,85.90440744763433
608203,ARCO,1105 W CHANDLER BLVD,Chandler,AZ,85224,Southwest,"Phoenix, AZ",Maricopa,33.3056743181,-111.8611478994,ARCO,Tesoro (UNB),ARCO,Marathon,(480)917-5444,,930,"Phoenix, AZ",980.0,"Tucson, AZ",15.751254256678525,90.84845257343389
680065,FLYERS #3215,11320 E GERMANN RD,Chandler,AZ,85286,Southwest,"Phoenix, AZ",Maricopa,33.27724,-111.83927,Flyers,Unbranded,Flyers,Flyers Energy LLC,(602)286-1653,,930,"Phoenix, AZ",980.0,"Tucson, AZ",17.98268379832676,88.51393762223296
645734,FRYS FUEL #7668 (DISCOUNT AVAILABLE),12132 EAST RIGGS RD,Chandler,AZ,85249,Southwest,"Phoenix, AZ",Maricopa,33.219285,-111.820039,Frys,Unbranded,Frys,Kroger,(480)883-6500,,930,"Phoenix, AZ",980.0,"Tucson, AZ",21.577252977153368,84.60287427902307
434882,CIRCLE K #2854,1262 W CHANDLER BLVD,Chandler,AZ,85224,Southwest,"Phoenix, AZ",Maricopa,33.30628,-111.865969,Circle K,Unbranded,Circle K,Couche-Tard,,,930,"Phoenix, AZ",980.0,"Tucson, AZ",15.508755232907324,91.04186854540022
651344,CHEVRON #374162,1280 S KYRENE RD,Chandler,AZ,85226,Southwest,"Phoenix, AZ",Maricopa,33.2879051594,-111.9462683649,Chevron,Chevron,Chevron,Chevron,,,930,"Phoenix, AZ",980.0,"Tucson, AZ",13.315993558919745,92.76707613733329
434880,CIRCLE K #8834,13549 E CHANDLER BLVD,Chandler,AZ,85225,Southwest,"Phoenix, AZ",Maricopa,33.306124,-111.790187,Circle K,Unbranded,Circle K,Couche-Tard,(480)821-2750,,930,"Phoenix, AZ",980.0,"Tucson, AZ",19.10052980954162,88.60233763636072
558534,CIRCLE K #5973,1405 N ALMA SCHOOL RD,Chandler,AZ,85224,Southwest,"Phoenix, AZ",Maricopa,33.328293,-111.858546,Circle K,Unbranded,Circle K,Couche-Tard,(480)855-4272,,930,"Phoenix, AZ",980.0,"Tucson, AZ",14.946179590473678,92.0520732212899
655237,PAC PRIDE,147 DELAWARE,Chandler,AZ,85225,Southwest,"Phoenix, AZ",Maricopa,33.301355305,-111.8372739188,Pac Pride,Unbranded,Pac Pride,Pac Pride,,70672.0,930,"Phoenix, AZ",980.0,"Tucson, AZ",17.024161041055702,89.82216893299838
630146,ARCO,1735 S COOPER RD,Chandler,AZ,85286,Southwest,"Phoenix, AZ",Maricopa,33.2802681577,-111.8063959621,ARCO,Tesoro (UNB),ARCO,Marathon,(480)726-9200,,930,"Phoenix, AZ",980.0,"Tucson, AZ",19.325174912398204,87.61772781002564
48639,SPEED SMART,1981 N ALMA SCHOOL RD,Chandler,AZ,85224,Southwest,"Phoenix, AZ",Maricopa,33.3347171183,-111.8587942351,Speed Smart,Chevron,Chevron,Speed Smart,(480)732-1350,,930,"Phoenix, AZ",980.0,"Tucson, AZ",14.69184501524165,92.42779330297581
594372,CHEVRON,1989 W RAY RD,Chandler,AZ,85224,Southwest,"Phoenix, AZ",Maricopa,33.3200636046,-111.8758010423,Chevron,Chevron,Chevron,Chevron,(480)857-9375,,930,"Phoenix, AZ",980.0,"Tucson, AZ",14.470809591327022,92.1478379212497
459998,CHEVRON,1990 S ALMA SCHOOL RD,Chandler,AZ,85286,Southwest,"Phoenix, AZ",Maricopa,33.2772307666,-111.8593379029,Chevron,Chevron,Chevron,Chevron,(480)814-1080,,930,"Phoenix, AZ",980.0,"Tucson, AZ",17.127647160511557,89.18052352419159
558723,QUIKTRIP #427,1995 N ARIZONA AVE,Chandler,AZ,85225,Southwest,"Phoenix, AZ",Maricopa,33.3345724078,-111.8410845979,QuikTrip,Unbranded,QuikTrip,QuikTrip,(480)917-3128,,930,"Phoenix, AZ",980.0,"Tucson, AZ",15.569890854995226,91.85175971425309
190575,CIRCLE K #5291,1995 S ARIZONA AVE,Chandler,AZ,85286,Southwest,"Phoenix, AZ",Maricopa,33.277013,-111.841163,Circle K,Shell,Shell,Couche-Tard,(480)963-3733,,930,"Phoenix, AZ",980.0,"Tucson, AZ",17.910912673075646,88.56355723549711
158441,CIRCLE K #9162,1995 W CHANDLER BLVD,Chandler,AZ,85224,Southwest,"Phoenix, AZ",Maricopa,33.305508,-111.875723,Circle K,Unbranded,Circle K,Couche-Tard,(480)786-8051,,930,"Phoenix, AZ",980.0,"Tucson, AZ",15.11219151564842,91.32183024881479
631368,QUIKTRIP #442,2010 S ARIZONA AVE,Chandler,AZ,85286,Southwest,"Phoenix, AZ",Maricopa,33.276205893,-111.8424593536,QuikTrip,Unbranded,QuikTrip,QuikTrip,(480)726-5202,,930,"Phoenix, AZ",980.0,"Tucson, AZ",17.891938859966164,88.56068921999643
158442,CIRCLE K #9163,2020 W WARNER RD,Chandler,AZ,85224,Southwest,"Phoenix, AZ",Maricopa,33.335583,-111.877082,Circle K,Unbranded,Circle K,Couche-Tard,(480)786-2014,,930,"Phoenix, AZ",980.0,"Tucson, AZ",13.777798821303708,93.07160873470812
684415,CIRCLE K,2021 E PECOS RD,Chandler,AZ,85225,Southwest,"Phoenix, AZ",Maricopa,33.2911394218,-111.8063902444,Circle K,Unbranded,Circle K,Couche-Tard,,,930,"Phoenix, AZ",980.0,"Tucson, AZ",18.882623358394046,88.24344642538674
559813,SHELL,2021 S ALMA SCHOOL RD,Chandler,AZ,85248,Southwest,"Phoenix, AZ",Maricopa,33.2754058895,-111.8582365477,Shell,Shell,Shell,Shell,(480)814-9274,,930,"Phoenix, AZ",980.0,"Tucson, AZ",17.26085206208954,89.04090277047746
418043,MOBIL,2025 E CHANDLER BLVD,Chandler,AZ,85225,Southwest,"Phoenix, AZ",Maricopa,33.305997664,-111.8064151039,Mobil,ExxonMobil,Mobil,ExxonMobil,(480)782-6075,,930,"Phoenix, AZ",980.0,"Tucson, AZ",18.308749608952635,89.10280886088103
459999,CHEVRON,2755 W CHANDLER BLVD,Chandler,AZ,85224,Southwest,"Phoenix, AZ",Maricopa,33.3054738724,-111.8888939348,Chevron,Chevron,Chevron,Chevron,(480)792-9300,,930,"Phoenix, AZ",980.0,"Tucson, AZ",14.546922223168371,91.76075249683242
561572,CIRCLE K #9187,295 S ARIZONA AVE,Chandler,AZ,85225,Southwest,"Phoenix, AZ",Maricopa,33.299321,-111.840944,Circle K,Unbranded,Circle K,Couche-Tard,(480)786-9271,,930,"Phoenix, AZ",980.0,"Tucson, AZ",16.939946422029543,89.82519476965942
664857,FRYS FUEL #7681 (DISCOUNT AVAILABLE),2955 E OCOTILLO RD,Chandler,AZ,85249,Southwest,"Phoenix, AZ",Maricopa,33.2478851482,-111.7909243851,Frys,Unbranded,Frys,Kroger,(480)566-8875,,930,"Phoenix, AZ",980.0,"Tucson, AZ",21.42272706873887,85.2616410081603
608202,CIRCLE K #1702,2955 E RIGGS RD,Chandler,AZ,85249,Southwest,"Phoenix, AZ",Maricopa,33.2186526832,-111.7900084809,Circle K,Unbranded,Circle K,Couche-Tard,(480)802-1963,,930,"Phoenix, AZ",980.0,"Tucson, AZ",22.821156653892984,83.56510016974583
683050,QUIKTRIP #473,2975 S GILBERT RD,Chandler,AZ,85286,Southwest,"Phoenix, AZ",Maricopa,33.2633907575,-111.7888671978,QuikTrip,Unbranded,QuikTrip,QuikTrip,,,930,"Phoenix, AZ",980.0,"Tucson, AZ",20.838394117306763,86.08587291825673
210060,CIRCLE K #3445,2990 N ARIZONA AVE,Chandler,AZ,85225,Southwest,"Phoenix, AZ",Maricopa,33.349007,-111.84238,Circle K,Unbranded,Circle K,Couche-Tard,,,930,"Phoenix, AZ",980.0,"Tucson, AZ",15.023128014461278,92.72633592743757
622635,CIRCLE K #3377,3010 S GILBERT RD,Chandler,AZ,85286,Southwest,"Phoenix, AZ",Maricopa,33.262248,-111.790275,Circle K,Unbranded,Circle K,Couche-Tard,(480)895-3172,,930,"Phoenix, AZ",980.0,"Tucson, AZ",20.823055466133834,86.06511954400948
655358,CIRCLE K #3452,3033 N DOBSON RD,Chandler,AZ,85224,Southwest,"Phoenix, AZ",Maricopa,33.350743,-111.875984,Circle K,Unbranded,Circle K,Couche-Tard,,,930,"Phoenix, AZ",980.0,"Tucson, AZ",13.267024454017971,93.90092417436686
678596,CIRCLE K #3490,3033 S MCQUEEN RD,Chandler,AZ,85286,Southwest,"Phoenix, AZ",Maricopa,33.261705,-111.82344,Circle K,Unbranded,Circle K,Couche-Tard,(480)792-6896,,930,"Phoenix, AZ",980.0,"Tucson, AZ",19.37891266099417,87.11062350814652
11173,CIRCLE K #9183,3033 W QUEEN CREEK RD,Chandler,AZ,85248,Southwest,"Phoenix, AZ",Maricopa,33.260902,-111.889415,Circle K,Unbranded,Circle K,Couche-Tard,(480)786-0186,,930,"Phoenix, AZ",980.0,"Tucson, AZ",16.7733806802549,89.29322665711892
252620,CIRCLE K #9182,3989 W RAY RD,Chandler,AZ,85226,Southwest,"Phoenix, AZ",Maricopa,33.319493,-111.910564,Circle K,Unbranded,Circle K,Couche-Tard,(480)786-4349,,930,"Phoenix, AZ",980.0,"Tucson, AZ",12.971383486688634,93.27811761132858
612417,FAST MARKET #4601,4020 W RAY RD,Chandler,AZ,85226,Southwest,"Phoenix, AZ",Maricopa,33.3206634562,-111.9119515892,FastMarket,Shell,Shell,GPM Investments,(480)491-5329,,930,"Phoenix, AZ",980.0,"Tucson, AZ",12.857602852123236,93.39061405808972
158370,CIRCLE K #9161,4040 W CHANDLER BLVD,Chandler,AZ,85226,Southwest,"Phoenix, AZ",Maricopa,33.305826,-111.911829,Circle K,Unbranded,Circle K,Couche-Tard,(480)753-4531,,930,"Phoenix, AZ",980.0,"Tucson, AZ",13.58728337056548,92.55812220743563
647127,SHELL,4231 W RIGGS RD,Chandler,AZ,85248,Southwest,"Phoenix, AZ",Maricopa,33.2188656469,-111.9145229218,Shell,Shell,Shell,Shell,,,930,"Phoenix, AZ",980.0,"Tucson, AZ",18.33874440564526,87.8842066517523
603683,SAFEWAY #1566,4910 S ALMA SCHOOL RD,Chandler,AZ,85248,Southwest,"Phoenix, AZ",Maricopa,33.2353252323,-111.8599533836,Safeway,Unbranded,Safeway,Albertsons,(480)883-0255,,930,"Phoenix, AZ",980.0,"Tucson, AZ",19.22054139013639,86.85892055656456
209999,CIRCLE K #0905,498 S ARIZONA AVE,Chandler,AZ,85225,Southwest,"Phoenix, AZ",Maricopa,33.295472,-111.841888,Circle K,Unbranded,Circle K,Couche-Tard,(480)963-5121,,930,"Phoenix, AZ",980.0,"Tucson, AZ",17.060409223481358,89.63647772155302
647950,ARCO,5050 S ARIZONA AVE,Chandler,AZ,85248,Southwest,"Phoenix, AZ",Maricopa,33.2324141474,-111.8418529314,ARCO,Tesoro (UNB),ARCO,Marathon,,,930,"Phoenix, AZ",980.0,"Tucson, AZ",20.05766251596123,86.07716776523048
627003,CHEVRON,5139 E WILD HORSE,Chandler,AZ,85226,Southwest,"Phoenix, AZ",Maricopa,33.2776257799,-111.970196997,Chevron,Chevron,Chevron,Chevron,(480)717-7500,,930,"Phoenix, AZ",980.0,"Tucson, AZ",13.233607059494235,93.06443493703031
625129,COSTCO #0736,595 S GALLERIA WAY,Chandler,AZ,85226,Southwest,"Phoenix, AZ",Maricopa,33.294378019,-111.8983565175,Costco,Unbranded,Costco,Costco,(480)375-2051,,930,"Phoenix, AZ",980.0,"Tucson, AZ",14.696666100663204,91.46016130615953
654449,CIRCLE K #5301,6015 S  ARIZONA AVE,Chandler,AZ,85248,Southwest,"Phoenix, AZ",Maricopa,33.21787,-111.840661,Circle K,Unbranded,Circle K,Couche-Tard,,,930,"Phoenix, AZ",980.0,"Tucson, AZ",20.861333363684103,85.22606659274213
323880,CIRCLE K #5032,6950 W CHANDLER BLVD,Chandler,AZ,85226,Southwest,"Phoenix, AZ",Maricopa,33.305754,-111.962558,Circle K,Unbranded,Circle K,Couche-Tard,(480)961-4286,,930,"Phoenix, AZ",980.0,"Tucson, AZ",11.768586860329036,94.31821490385663
420283,CIRCLE K #5302,6969 W RAY RD,Chandler,AZ,85226,Southwest,"Phoenix, AZ",Maricopa,33.319433,-111.962244,Circle K,Unbranded,Circle K,Couche-Tard,(480)785-7839,,930,"Phoenix, AZ",980.0,"Tucson, AZ",10.999426498137128,95.05627402476577
608278,SAMS CLUB #6213,700 N 54TH ST,Chandler,AZ,85226,Southwest,"Phoenix, AZ",Maricopa,33.3137248187,-111.9688200904,Sams Club,Unbranded,Sams Club,Sams Club,(480)893-1555,,930,"Phoenix, AZ",980.0,"Tucson, AZ",11.109726155489373,94.97509103589434
238291,CHEVRON,7000 W CHANDLER BLVD,Chandler,AZ,85226,Southwest,"Phoenix, AZ",Maricopa,33.3058478379,-111.96378226,Chevron,Chevron,Chevron,Chevron,(480)961-7900,,930,"Phoenix, AZ",980.0,"Tucson, AZ",11.724688235798146,94.36664297013596
595981,LOVES TRAVEL STOPS #328,7001 W SUNDUST RD,Chandler,AZ,85226,Southwest,"Phoenix, AZ",Maricopa,33.280258,-111.962175,Loves,Unbranded,Loves,Loves,(520)796-1185,66858.0,930,"Phoenix, AZ",980.0,"Tucson, AZ",13.290175415736842,92.91783196086328
687212,FIREBIRD FUELS #828,7005 W DETROIT ST,Chandler,AZ,85224,Southwest,"Phoenix, AZ",Maricopa,33.306668,-111.964005,Unbranded,Unbranded,Unbranded,Flyers Energy LLC,,,930,"Phoenix, AZ",980.0,"Tucson, AZ",11.670107699906223,94.41931489348327
403210,CIRCLE K #5400,7351 W CHANDLER BLVD,Chandler,AZ,85226,Southwest,"Phoenix, AZ",Maricopa,33.304764,-111.967707,Circle K,Unbranded,Circle K,Couche-Tard,(480)785-7951,,930,"Phoenix, AZ",980.0,"Tucson, AZ",11.667071995600162,94.44659976998864
213620,CHEVRON,980 N COOPER RD,Chandler,AZ,85225,Southwest,"Phoenix, AZ",Maricopa,33.3203091267,-111.8074842865,Chevron,Chevron,Chevron,Chevron,(480)855-8289,,930,"Phoenix, AZ",980.0,"Tucson, AZ",17.742250523950343,89.96650639214693
446556,SPEEDWAY #3007,HIGHWAY 191,Chinle,AZ,86503,Southwest,,Apache,36.1506568304,-109.5917252775,Speedway,Tesoro (UNB),Speedway,7-Eleven,(928)674-5401,,617,"Ciniza, NM",614.0,"Bloomfield, NM",183.16383408233398,97.24783254579697
174806,PIC N RUN LUBE AND TIRE CENTER 2,NAVAJO ROUTE 7,Chinle,AZ,86503,Southwest,,Apache,36.1592465721,-109.5772709508,Conoco,PSX,Conoco,PSX,(928)674-3446,,617,"Ciniza, NM",614.0,"Bloomfield, NM",182.6528219869827,96.27093992725108
449714,SPEEDWAY #3008,NAVAJO RT 64 & US HWY 191,Chinle,AZ,86503,Southwest,,Apache,36.1610157619,-109.5829923836,Speedway,Tesoro (UNB),Speedway,7-Eleven,(928)674-8243,,617,"Ciniza, NM",614.0,"Bloomfield, NM",182.99437715891733,96.51474430747368
321997,CHEVRON,ROUTE 7,Chinle,AZ,86503,Southwest,,Apache,36.1544168228,-109.5591575593,Chevron,Chevron,Chevron,Chevron,(928)674-3240,,617,"Ciniza, NM",614.0,"Bloomfield, NM",181.59240042927473,95.48119834995704
603826,SAFEWAY #1747,1031 N HIGHWAY 89,Chino Valley,AZ,86323,Southwest,"Prescott, AZ",Yavapai,34.760670318,-112.4532214892,Safeway,Unbranded,Safeway,Albertsons,(520)636-8425,,930,"Phoenix, AZ",980.0,"Tucson, AZ",93.23412565790913,194.9676350688608
627335,MAVERIK COUNTRY STORE #350,1060 S HIGHWAY 89,Chino Valley,AZ,86323,Southwest,"Prescott, AZ",Yavapai,34.7305043244,-112.4546356474,Maverik,Unbranded,Maverik,Maverik,(928)636-3025,,930,"Phoenix, AZ",980.0,"Tucson, AZ",91.22845552611659,193.1375397670992
172576,CIRCLE K #5326,1910 N US HIGHWAY 89,Chino Valley,AZ,86323,Southwest,"Prescott, AZ",Yavapai,34.773229,-112.453298,Circle K,Shell,Shell,Couche-Tard,(928)636-9827,,930,"Phoenix, AZ",980.0,"Tucson, AZ",94.0789282594381,195.74772871050388
122814,DOUGS,695 N US HIGHWAY 89,Chino Valley,AZ,86323,Southwest,"Prescott, AZ",Yavapai,34.7556602885,-112.4537142301,Unbranded,Unbranded,Unbranded,Unbranded,,,930,"Phoenix, AZ",980.0,"Tucson, AZ",92.90422291740295,194.6698342292964
198400,SHELL,995 S US HIGHWAY 89,Chino Valley,AZ,86323,Southwest,"Prescott, AZ",Yavapai,34.7314774587,-112.4536584619,Shell,Shell,Shell,Shell,(928)636-2291,,930,"Phoenix, AZ",980.0,"Tucson, AZ",91.28039962032143,193.1728081189416
460719,CIBECUE COMMERCIAL CENTER,221 S COOLEY RD,Cibecue,AZ,85911,Southwest,,Navajo,34.034533,-110.486483,Unbranded,Unbranded,Unbranded,Unbranded,(928)332-2500,,930,"Phoenix, AZ",980.0,"Tucson, AZ",99.80129448761289,128.34738350379658
687761,Apache Minute Mart,US-60 & SR-73,Cibecue,AZ,85911,Southwest,,Navajo,34.0039454436,-110.2549467981,Sinclair,Sinclair,Sinclair,Sinclair,,,930,"Phoenix, AZ",980.0,"Tucson, AZ",111.36119299505573,129.94320874065585
172513,CIRCLE K #1445,4303 E US HIGHWAY 60-70,Claypool,AZ,85532,Southwest,,Gila,33.411054,-110.842786,Circle K,Unbranded,Circle K,Couche-Tard,(928)473-2530,,930,"Phoenix, AZ",980.0,"Tucson, AZ",71.04593059588278,82.47578159017291
628552,FIREBIRD FUELS,5698 S GROVER CANYON RD,Claypool,AZ,85532,Southwest,,Gila,33.4098781396,-110.8478987217,Unbranded,Unbranded,Unbranded,Flyers Energy LLC,,,930,"Phoenix, AZ",980.0,"Tucson, AZ",70.75478813764778,82.36781856295474
656818,THREE WAY STORE,154500 AZ-78,Clifton,AZ,85533,Southwest,,Greenlee,32.9486207027,-109.2294547332,Unbranded,Unbranded,Unbranded,Unbranded,,,980,"Tucson, AZ",930.0,"Phoenix, AZ",113.31642858022005,168.05009501962616
403064,CIRCLE K #0754,310 N CORONADO BLVD,Clifton,AZ,85533,Southwest,,Greenlee,33.056857,-109.302399,Circle K,Shell,Shell,Couche-Tard,(928)865-3441,,980,"Tucson, AZ",930.0,"Phoenix, AZ",113.09478425677311,162.41689260550473
687862,CHEVRON #383914,1075 S CENTRAL ST,Colorado City,AZ,86021,Southwest,"Lake Havasu-Kingman, AZ",Mohave,36.9724131549,-112.9744351072,Chevron,Chevron,Chevron,Chevron,,,791,"Cedar City, UT",910.0,"Las Vegas, NV",48.95625581114314,132.33652845478883
682427,JIFFY STORE,36 CR-5059,Concho,AZ,85924,,,Apache,34.4427764696,-109.6347973427,Unbranded,Unbranded,Unbranded,Unbranded,,,617,"Ciniza, NM",930.0,"Phoenix, AZ",177.58050863030363,155.78159050039778
622496,SUPERPUMPER,26725 S HWY 89,Congress,AZ,85332,Southwest,"Prescott, AZ",Yavapai,34.1622350222,-112.8441688631,Shell,Shell,Shell,Shell,(928)427-9864,,930,"Phoenix, AZ",980.0,"Tucson, AZ",66.24340164742081,172.17724089564896
637034,PAC PRIDE,109 S 1ST ST,Coolidge,AZ,85128,Southwest,"Phoenix, AZ",Pinal,32.977276,-111.51597,Pac Pride,Unbranded,Pac Pride,Pac Pride,(480)962-6111,70252.0,930,"Phoenix, AZ",980.0,"Tucson, AZ",45.830149131341976,60.925881337919215
603708,SAFEWAY #1732,1449 N ARIZONA BLVD,Coolidge,AZ,85128,Southwest,"Phoenix, AZ",Pinal,32.993811896,-111.5232419139,Safeway,Unbranded,Safeway,Albertsons,(520)723-5300,,930,"Phoenix, AZ",980.0,"Tucson, AZ",44.7233799366883,62.12162351525836
665229,CIRCLE K #3473,1541 N ARIZONA BLVD,Coolidge,AZ,85228,Southwest,"Phoenix, AZ",Pinal,32.997947,-111.523089,Circle K,Unbranded,Circle K,Couche-Tard,,,930,"Phoenix, AZ",980.0,"Tucson, AZ",44.528953387808336,62.3619602105618
680568,CIRCLE K #3492,255 S MAIN ST,Coolidge,AZ,85128,Southwest,"Phoenix, AZ",Pinal,32.97605,-111.51755,Circle K,Unbranded,Circle K,Couche-Tard,(520)723-4021,,930,"Phoenix, AZ",980.0,"Tucson, AZ",45.82635597120178,60.90117461262045
622497,COOLIDGE FUEL,295 S ARIZONA BLVD,Coolidge,AZ,85128,Southwest,"Phoenix, AZ",Pinal,32.9757303807,-111.5236617922,Chevron,Chevron,Chevron,Chevron,(520)426-0464,,930,"Phoenix, AZ",980.0,"Tucson, AZ",45.594890564205684,61.06774003093811
462031,T&L Convenience Store,411 N ARIZONA BLVD,Coolidge,AZ,85228,Southwest,"Phoenix, AZ",Pinal,32.9810518329,-111.5237227423,Unbranded,Unbranded,Unbranded,Unbranded,(520)723-4221,,930,"Phoenix, AZ",980.0,"Tucson, AZ",45.32907945106604,61.38272962033784
324148,CIRCLE K #2943,495 S ARIZONA BLVD,Coolidge,AZ,85128,Southwest,"Phoenix, AZ",Pinal,32.973715,-111.52382,Circle K,Unbranded,Circle K,Couche-Tard,(520)723-7233,,930,"Phoenix, AZ",980.0,"Tucson, AZ",45.688632808100834,60.95413251227555
462032,SPEEDWAY #2970,780 N ARIZONA BLVD,Coolidge,AZ,85128,Southwest,"Phoenix, AZ",Pinal,32.9846314282,-111.5242661728,Speedway,Tesoro (UNB),Speedway,7-Eleven,(520)723-9438,,930,"Phoenix, AZ",980.0,"Tucson, AZ",45.13062425362207,61.61012287726045
675566,SHELL,87 AZ RT AND N SIGNAL PEAK,Coolidge,AZ,85128,Southwest,"Phoenix, AZ",Pinal,33.0042257481,-111.6141119266,Shell,Shell,Shell,Shell,,,930,"Phoenix, AZ",980.0,"Tucson, AZ",40.6023810777673,65.58852604553897
648321,CRAZY TONY`S,1220 S EASTERN DR,Cornville,AZ,86325,Southwest,"Prescott, AZ",Yavapai,34.7170199071,-111.9001851596,Shell,Shell,Shell,Shell,,,930,"Phoenix, AZ",980.0,"Tucson, AZ",88.22109843177496,180.4217326389607
511577,CORNVILLE COUNTY MARKET,9420 E CORNVILLE RD,Cornville,AZ,86325,Southwest,"Prescott, AZ",Yavapai,34.7178260397,-111.9235235229,Marathon,Marathon,Marathon,Marathon,(928)639-2982,,930,"Phoenix, AZ",980.0,"Tucson, AZ",88.13594605894816,180.87689679885568
403061,CIRCLE K #0607,10 S MAIN ST,Cottonwood,AZ,86326,Southwest,"Prescott, AZ",Yavapai,34.739358,-112.010052,Circle K,Unbranded,Circle K,Couche-Tard,(928)634-8525,,930,"Phoenix, AZ",980.0,"Tucson, AZ",89.27709302819692,183.85041347461066
626864,FRYS FUEL #7103 (DISCOUNT AVAILABLE),1080 S STATE ROUTE 260,Cottonwood,AZ,86326,Southwest,"Prescott, AZ",Yavapai,34.7195998682,-112.0028504606,Frys,Unbranded,Frys,Kroger,(928)634-9611,,930,"Phoenix, AZ",980.0,"Tucson, AZ",87.93115500945109,182.42665748919006
292892,CHEVRON GAS STATION AND CAR WASH,1204 S HIGHWAY 260,Cottonwood,AZ,86326,Southwest,"Prescott, AZ",Yavapai,34.717622749,-112.0017971811,Chevron,Chevron,Chevron,Chevron,(928)639-2628,,930,"Phoenix, AZ",980.0,"Tucson, AZ",87.79750579030753,182.2779611047051
534200,76,1475 S HIGHWAY 260,Cottonwood,AZ,86326,Southwest,"Prescott, AZ",Yavapai,34.7122510791,-111.9970457083,76,PSX,76,PSX,(928)649-0405,,930,"Phoenix, AZ",980.0,"Tucson, AZ",87.44002881342145,181.8386499115856
687527,CIRCLE K #9527,1500 E MINGUS AVE,Cottonwood,AZ,86326,Southwest,"Prescott, AZ",Yavapai,34.7393574487,-112.0100952654,Circle K,Unbranded,Circle K,Couche-Tard,(928)649-5910,,930,"Phoenix, AZ",980.0,"Tucson, AZ",89.2769535410354,183.8511864773589
462252,QUICK COUNTRY STORE,4100 E WESTERN DR,Cottonwood,AZ,86326,Southwest,"Prescott, AZ",Yavapai,34.6927381302,-111.9822639656,Unbranded,Unbranded,Unbranded,Unbranded,(928)646-6066,,930,"Phoenix, AZ",980.0,"Tucson, AZ",86.1409203347687,180.28960885276314
139347,Fuel Up MINI MART,607 E HIGHWAY 89A,Cottonwood,AZ,86326,Southwest,"Prescott, AZ",Yavapai,34.7293521157,-112.0225524381,Unbranded,Unbranded,Unbranded,Unbranded,(520)634-5486,,930,"Phoenix, AZ",980.0,"Tucson, AZ",88.55964239358127,183.43358413707475
218406,Spirit,646 N MAIN ST,Cottonwood,AZ,86326,Southwest,"Prescott, AZ",Yavapai,34.7439886112,-112.0165724462,Spirit,Unbranded,Spirit,Unbranded,(928)634-3841,,930,"Phoenix, AZ",980.0,"Tucson, AZ",89.58232513361021,184.27461508955756
492326,MAVERIK COUNTRY STORE #545,690 W HIGHWAY 89A,Cottonwood,AZ,86326,Southwest,"Prescott, AZ",Yavapai,34.7378120396,-112.0346504467,Maverik,Unbranded,Maverik,Maverik,(928)649-0713,,930,"Phoenix, AZ",980.0,"Tucson, AZ",89.12370290089632,184.21462161795617
260817,NUMBER 1 FOOD STORES,755 E HIGHWAY 89A,Cottonwood,AZ,86326,Southwest,"Prescott, AZ",Yavapai,34.7618217555,-112.0639898828,Unbranded,Unbranded,Unbranded,Unbranded,(928)634-2551,,930,"Phoenix, AZ",980.0,"Tucson, AZ",90.75607838370573,186.34022784483724
608205,SHELL,898 S MAIN ST,Cottonwood,AZ,86326,Southwest,"Prescott, AZ",Yavapai,34.7233749921,-112.0059221988,Shell,Shell,Shell,Shell,(928)639-0424,,930,"Phoenix, AZ",980.0,"Tucson, AZ",88.18378371480244,182.73044750906658
427569,Marathon,962 S MAIN ST,Cottonwood,AZ,86326,Southwest,"Prescott, AZ",Yavapai,34.7225558589,-112.0048426041,Marathon,Marathon,Marathon,Marathon,(928)634-7901,,930,"Phoenix, AZ",980.0,"Tucson, AZ",88.12999227679707,182.65678981769025
446584,SPEEDWAY #2883,999 S MAIN ST,Cottonwood,AZ,86326,Southwest,"Prescott, AZ",Yavapai,34.7220380469,-112.0025733294,Speedway,Tesoro (UNB),Speedway,7-Eleven,(928)634-8459,,930,"Phoenix, AZ",980.0,"Tucson, AZ",88.10017849060395,182.58054521325167
625196,TEXACO,1737 S AVE 64 E,Dateland,AZ,85333,Southwest,"Yuma, AZ",Yuma,32.7998676664,-113.5403767419,Texaco,Chevron,Texaco,Chevron,(928)454-2772,,930,"Phoenix, AZ",900.0,"Imperial, CA",95.96105500544003,117.86043890295954
686078,CONDES ENTERPRISES,64503 S AGUA CALIENT,Dateland,AZ,85333,Southwest,"Yuma, AZ",Yuma,32.859479,-113.3212666,Unbranded,Unbranded,Unbranded,Unbranded,(928)454-2712,,930,"Phoenix, AZ",900.0,"Imperial, CA",82.83593209438737,130.4958914023968
684068,DENNEHOTSO MARKET,US HWY 160,Dennehotso,AZ,86535,,,Apache,36.8377942012,-109.8465537619,Shell,Shell,Shell,Shell,(505)292-5495,,617,"Ciniza, NM",614.0,"Bloomfield, NM",217.96686462280923,103.44124420636074
623640,MAVERIK COUNTRY STORE #401,1344 N PRESCOTT CNTRY CLUB BLVD,Dewey,AZ,86327,Southwest,"Prescott, AZ",Yavapai,34.5617569847,-112.2606504737,Maverik,Unbranded,Maverik,Maverik,(928)759-7334,71271.0,930,"Phoenix, AZ",980.0,"Tucson, AZ",77.66960978453973,177.83788642008167
604222,CHEVRON #307428,210 S HIGHWAY 69,Dewey,AZ,86327,Southwest,"Prescott, AZ",Yavapai,34.539349,-112.246932,Chevron,Chevron,Chevron,Chevron,(928)632-7278,,930,"Phoenix, AZ",980.0,"Tucson, AZ",76.03012178922167,176.10466778916555
675429,CHEVRON,14097 N PIERCE FERRY,Dolan Springs,AZ,86441,Southwest,"Lake Havasu-Kingman, AZ",Mohave,35.5349924339,-114.3546820458,Chevron,Chevron,Chevron,Chevron,(928)555-5555,,910,"Las Vegas, NV",930.0,"Phoenix, AZ",62.11288729713141,194.0432071431162
624472,DOLAN STATION,15916 PIERCE FERRY RD,Dolan Springs,AZ,86441,Southwest,"Lake Havasu-Kingman, AZ",Mohave,35.5875961469,-114.2765598204,Unbranded,Unbranded,Unbranded,Unbranded,(928)767-4555,,910,"Las Vegas, NV",930.0,"Phoenix, AZ",62.88607447149048,193.82563788670393
463879,BORDER MART,100 E 3RD ST,Douglas,AZ,85607,Southwest,"Sierra Vista-Douglas, AZ",Cochise,31.3375211356,-109.5592315849,Shell,Shell,Shell,Shell,(520)364-6558,,980,"Tucson, AZ",930.0,"Phoenix, AZ",103.21029898815524,206.87239781953886
463881,SPEEDWAY #2976,101 E 16TH ST,Douglas,AZ,85607,Southwest,"Sierra Vista-Douglas, AZ",Cochise,31.3503396274,-109.5604298934,Speedway,Tesoro (UNB),Speedway,7-Eleven,(520)364-5662,,980,"Tucson, AZ",930.0,"Phoenix, AZ",102.62634827817843,206.19190410961946
463882,GOOD 2 GO #523,1050 E 10TH ST,Douglas,AZ,85607,Southwest,"Sierra Vista-Douglas, AZ",Cochise,31.3446647277,-109.5459023969,Good 2 Go,PSX,76,Good 2 Go,(520)364-5791,,980,"Tucson, AZ",930.0,"Phoenix, AZ",103.54944954190519,207.0736579257151
463884,SPEEDWAY #2977,1060 E 18TH ST,Douglas,AZ,85607,Southwest,"Sierra Vista-Douglas, AZ",Cochise,31.3529745985,-109.5456664494,Speedway,Tesoro (UNB),Speedway,7-Eleven,(520)364-7431,,980,"Tucson, AZ",930.0,"Phoenix, AZ",103.22234270364746,206.67606538981775
449730,SPEEDWAY #2991,1807 E 10TH ST,Douglas,AZ,85607,Southwest,"Sierra Vista-Douglas, AZ",Cochise,31.344193078,-109.5335489382,Speedway,Tesoro (UNB),Speedway,7-Eleven,(520)364-7003,,980,"Tucson, AZ",930.0,"Phoenix, AZ",104.15749364538723,207.6105717977993
569749,ARIZONA FUELS DOUGLAS,461 N PAN AMERICAN AVE,Douglas,AZ,85607,Southwest,"Sierra Vista-Douglas, AZ",Cochise,31.3390203805,-109.5586570048,Chevron,Chevron,Chevron,Chevron,(520)805-9000,,980,"Tucson, AZ",930.0,"Phoenix, AZ",103.17561341402032,206.82230380413876
73570,CIRCLE K #0241,730 F AVE,Douglas,AZ,85607,Southwest,"Sierra Vista-Douglas, AZ",Cochise,31.342053,-109.553157,Circle K,Unbranded,Circle K,Couche-Tard,(520)364-2692,,980,"Tucson, AZ",930.0,"Phoenix, AZ",103.31156178992718,206.90087823624987
665762,CIRCLE K #3488,801 N PAN AMERICAN AVE,Douglas,AZ,85607,Southwest,"Sierra Vista-Douglas, AZ",Cochise,31.342628479,-109.5572814941,Circle K,Unbranded,Circle K,Couche-Tard,(520)805-4425,,980,"Tucson, AZ",930.0,"Phoenix, AZ",103.09221397851402,206.70162747537563
106991,SHELL,2631 N JOHNSON RD,Dragoon,AZ,85609,Southwest,"Sierra Vista-Douglas, AZ",Cochise,32.0810020353,-110.0507027179,Shell,Shell,Shell,Shell,(520)586-2581,,980,"Tucson, AZ",930.0,"Phoenix, AZ",54.93278104269008,150.81824106901138
622498,THE STAGE SHOP,315 RAILROAD BLVD,Duncan,AZ,85534,Southwest,,Greenlee,32.7212274695,-109.1044866877,Unbranded,Unbranded,Unbranded,Unbranded,(928)359-9010,,980,"Tucson, AZ",930.0,"Phoenix, AZ",114.33570548191517,179.10213953821025
464074,CHAPARRALL MINIMART,506 HIGH ST,Duncan,AZ,85534,Southwest,,Greenlee,32.7155303574,-109.1006753051,Unbranded,Unbranded,Unbranded,Unbranded,(928)359-2771,,980,"Tucson, AZ",930.0,"Phoenix, AZ",114.43309732913788,179.4299372564371
592264,HOP-IN FOOD STORES,12 S MAIN ST,Eagar,AZ,85925,Southwest,,Apache,34.1106470781,-109.2918437387,Hop-In Food Stores,Unbranded,Hop-In Food Stores,Majors Mgmt,(928)333-2697,,617,"Ciniza, NM",580.0,"Albuquerque, NM",166.96432717555737,164.61147047395804
403058,CIRCLE K #0549,16 N MAIN ST,Eagar,AZ,85925,Southwest,,Apache,34.111168,-109.291823,Circle K,Unbranded,Circle K,Couche-Tard,(928)333-2346,,617,"Ciniza, NM",580.0,"Albuquerque, NM",166.9482983537484,164.59525893014236
681607,UNION 76,14283 FRONTAGE RD N,Ehrenberg,AZ,85334,Southwest,,La Paz,33.6036779747,-114.5209684537,76,PSX,76,PSX,,,900,"Imperial, CA",930.0,"Phoenix, AZ",80.02399472841248,141.35508109490513
562229,FLYING J TRAVEL PLAZA #608,14320 FLYING J RD,Ehrenberg,AZ,85334,Southwest,,La Paz,33.6020844544,-114.5227724379,Flying J,Unbranded,Flying J,Pilot,(928)923-9600,6351.0,900,"Imperial, CA",930.0,"Phoenix, AZ",79.87354416305025,141.45167681379516
464524,PWI #640,18221 TOM WELLS RD,Ehrenberg,AZ,85334,Southwest,,La Paz,33.6239796096,-114.4375228597,Chevron,Chevron,Chevron,Petroleum Wholesale Inc,(928)927-6568,66400.0,900,"Imperial, CA",930.0,"Phoenix, AZ",84.61242014335525,136.66453392630942
624355,SHELL SERVICE STATION,12170 N EL MIRAGE RD,El Mirage,AZ,85335,Southwest,"Phoenix, AZ",Maricopa,33.5940126525,-112.3251668409,Shell,Shell,Shell,Shell,(623)933-3202,,930,"Phoenix, AZ",980.0,"Tucson, AZ",17.623062033372612,122.94820786648773
641602,CIRCLE K #1669,13777 N DYSART RD,El Mirage,AZ,85335,Southwest,"Phoenix, AZ",Maricopa,33.6084675272,-112.3414667683,Circle K,Unbranded,Circle K,Couche-Tard,(623)933-0134,,930,"Phoenix, AZ",980.0,"Tucson, AZ",18.96526873468332,124.31628879563316
230185,DESERT VIDEOLAND OASIS,10338 N HWY,Elfrida,AZ,85610,Southwest,"Sierra Vista-Douglas, AZ",Cochise,31.6825154731,-109.6875575839,Unbranded,Unbranded,Unbranded,Unbranded,(520)642-3819,,980,"Tucson, AZ",930.0,"Phoenix, AZ",84.18544572372583,184.92543960534545
562240,FLYING J TRAVEL PLAZA #609,16189 S SUNSHINE BLVD,Eloy,AZ,85131,Southwest,"Phoenix, AZ",Pinal,32.731761,-111.549763,Flying J,Unbranded,Flying J,Pilot,(520)466-9204,9941.0,930,"Phoenix, AZ",980.0,"Tucson, AZ",58.07787203806066,48.59424368385067
127384,TA ELOY TRAVEL CENTER,2949 N TOLTEC RD,Eloy,AZ,85131,Southwest,"Phoenix, AZ",Pinal,32.7732477255,-111.6186997036,Travelcenters Of America,Unbranded,Travelcenters Of America,Travelcenters Of America,(520)466-7363,567.0,930,"Phoenix, AZ",980.0,"Tucson, AZ",53.579241474985075,53.44356896741529
687127,ONE9 XPRESS FUEL #1264,3105 N TOLTEC RD,Eloy,AZ,85131,Southwest,"Phoenix, AZ",Pinal,32.7795840439,-111.6188867792,Unbranded,Unbranded,Unbranded,Pilot,(520)709-7059,71123.0,930,"Phoenix, AZ",980.0,"Tucson, AZ",53.19263460421522,53.76283478308185
534019,CIRCLE K #2947,3125 N TOLTEC RD,Eloy,AZ,85131,Southwest,"Phoenix, AZ",Pinal,32.782034,-111.619022,Circle K,Unbranded,Circle K,Couche-Tard,(520)466-7361,,930,"Phoenix, AZ",980.0,"Tucson, AZ",53.04155926969283,53.88927998034252
40548,GOOD 2 GO #514,3160 N TOLTEC RD,Eloy,AZ,85131,Southwest,"Phoenix, AZ",Pinal,32.7799672292,-111.619766795,Good 2 Go,Chevron,Chevron,Good 2 Go,(520)466-1313,,930,"Phoenix, AZ",980.0,"Tucson, AZ",53.14439317173301,53.817543643061065
193875,PETRO STOPPING CENTER #306,5235 S SUNLAND GIN RD,Eloy,AZ,85131,Southwest,"Phoenix, AZ",Pinal,32.812399642,-111.6706645977,Petro Stop,Shell,Shell,Travelcenters Of America,(520)836-3983,121.0,930,"Phoenix, AZ",980.0,"Tucson, AZ",49.75883247118396,57.49052033361164
552519,PRIDE 1216,5240 S SUNLAND GIN RD,Eloy,AZ,85131,Southwest,"Phoenix, AZ",Pinal,32.8119037385,-111.6720980924,Pride,Unbranded,Pride,Pilot,,5414.0,930,"Phoenix, AZ",980.0,"Tucson, AZ",49.75030129534887,57.52528040275159
403093,CIRCLE K #2935,612 W FRONTIER ST,Eloy,AZ,85131,Southwest,"Phoenix, AZ",Pinal,32.760201,-111.567544,Circle K,Unbranded,Circle K,Couche-Tard,(520)466-7666,,930,"Phoenix, AZ",980.0,"Tucson, AZ",55.86222592780224,50.73181628974385
558671,PILOT TRAVEL CENTERS #458,619 S SUNSHINE BLVD,Eloy,AZ,85131,Southwest,"Phoenix, AZ",Pinal,32.738146,-111.549383,Pilot,Unbranded,Pilot,Pilot,(520)466-7550,64681.0,930,"Phoenix, AZ",980.0,"Tucson, AZ",57.71316599004492,48.89861168360025
294433,CIRCLE K #0233,817 N MAIN ST,Eloy,AZ,85131,Southwest,"Phoenix, AZ",Pinal,32.758283,-111.554628,Circle K,Unbranded,Circle K,Couche-Tard,(520)466-7001,,930,"Phoenix, AZ",980.0,"Tucson, AZ",56.37036490942941,50.124459645317984
431859,SPEEDWAY #2886,101 E BUTLER AVE,Flagstaff,AZ,86001,Southwest,"Flagstaff, AZ",Coconino,35.1934513078,-111.649553469,Speedway,Tesoro (UNB),Speedway,7-Eleven,(928)774-8073,,930,"Phoenix, AZ",617.0,"Ciniza, NM",122.98718803467621,285.0751991531143
675865,SPEEDWAY #2931,1010 N COUNTRY CLUB DR,Flagstaff,AZ,86004,Southwest,"Flagstaff, AZ",Coconino,35.214096,-111.578748,Speedway,Tesoro (UNB),Speedway,7-Eleven,,,930,"Phoenix, AZ",617.0,"Ciniza, NM",125.23468786974765,281.0828783742674
431860,SPEEDWAY #2887,1050 S MILTON RD,Flagstaff,AZ,86001,Southwest,"Flagstaff, AZ",Coconino,35.1900341345,-111.660838021,Speedway,Tesoro (UNB),Speedway,7-Eleven,(928)779-9915,,930,"Phoenix, AZ",617.0,"Ciniza, NM",122.63037613385477,285.7123305303606
418017,CHEVRON,11230 N US HIGHWAY 89,Flagstaff,AZ,86004,Southwest,"Flagstaff, AZ",Coconino,35.3018212817,-111.5433354925,Chevron,Chevron,Chevron,Chevron,(928)527-1712,,930,"Phoenix, AZ",617.0,"Ciniza, NM",131.5935135314097,279.192234447805
534190,SHELL,1311 E BUTLER AVE,Flagstaff,AZ,86001,Southwest,"Flagstaff, AZ",Coconino,35.1915752923,-111.6351296168,Shell,Shell,Shell,Shell,(928)774-8406,,930,"Phoenix, AZ",617.0,"Ciniza, NM",123.02505497923228,284.26062358005
292891,CHEVRON,1312 N FORT VALLEY RD,Flagstaff,AZ,86001,Southwest,"Flagstaff, AZ",Coconino,35.2111458299,-111.649261994,Chevron,Chevron,Chevron,Chevron,(928)773-9890,,930,"Phoenix, AZ",617.0,"Ciniza, NM",124.18886509953934,285.0624029178482
621880,ARIZONA TRAILS,13673 TOWNSEND WINONA RD,Flagstaff,AZ,86004,Southwest,"Flagstaff, AZ",Coconino,35.2027970398,-111.4090062907,Shell,Shell,Shell,Shell,(928)527-1177,,930,"Phoenix, AZ",617.0,"Ciniza, NM",127.02408475533328,271.4951310872386
41302,SAFEWAY #1225,1500 E CEDAR AVE,Flagstaff,AZ,86004,Southwest,"Flagstaff, AZ",Coconino,35.2183509664,-111.6216722957,Safeway,Unbranded,Safeway,Albertsons,(520)774-8640,,930,"Phoenix, AZ",617.0,"Ciniza, NM",124.99246481678279,283.5079947750819
126651,76,1601 S MILTON RD,Flagstaff,AZ,86001,Southwest,"Flagstaff, AZ",Coconino,35.1848413206,-111.6617653926,76,PSX,76,PSX,(928)774-2603,,930,"Phoenix, AZ",617.0,"Ciniza, NM",122.2682287119798,285.7649588561322
558289,MAVERIK COUNTRY STORE #288,1690 W ROUTE 66,Flagstaff,AZ,86001,Southwest,"Flagstaff, AZ",Coconino,35.1882616684,-111.6744975993,Maverik,Unbranded,Maverik,Maverik,(928)773-0424,,930,"Phoenix, AZ",617.0,"Ciniza, NM",122.36262522547409,286.48373609201565
601193,CHEVRON,1785 S RAILROAD SPRINGS BLVD,Flagstaff,AZ,86001,Southwest,"Flagstaff, AZ",Coconino,35.1881492698,-111.6811837699,Chevron,Chevron,Chevron,Chevron,,,930,"Phoenix, AZ",617.0,"Ciniza, NM",122.28448454000176,286.8613157470969
630998,SAMS CLUB #6604,1851 E BUTLER AVE,Flagstaff,AZ,86001,Southwest,"Flagstaff, AZ",Coconino,35.190451757,-111.6299515346,Sams Club,Unbranded,Sams Club,Sams Club,(928)774-9444,,930,"Phoenix, AZ",617.0,"Ciniza, NM",123.00960755656192,283.9681888505802
239912,CIRCLE K #8853,1950 S MILTON RD,Flagstaff,AZ,86001,Southwest,"Flagstaff, AZ",Coconino,35.180679,-111.66093,Circle K,Unbranded,Circle K,Couche-Tard,(928)779-1670,,930,"Phoenix, AZ",617.0,"Ciniza, NM",121.99532529982986,285.71831231292987
565223,FRYS FUEL #7104 (DISCOUNT AVAILABLE),199 N SWITZER CANYON DR,Flagstaff,AZ,86001,Southwest,"Flagstaff, AZ",Coconino,35.1940738582,-111.6350530816,Frys,Unbranded,Frys,Kroger,(928)214-8548,,930,"Phoenix, AZ",617.0,"Ciniza, NM",123.19490076955424,284.2564481862096
164456,MAJESTIC MOBIL,2020 S MILTON RD,Flagstaff,AZ,86001,Southwest,"Flagstaff, AZ",Coconino,35.1799764057,-111.6609890922,Mobil,ExxonMobil,Mobil,ExxonMobil,(928)773-0313,,930,"Phoenix, AZ",617.0,"Ciniza, NM",121.9470605962725,285.7217677343871
686689,NAVAJO BLUE TRAVEL CENTER,21275 RESORT BLVD,Flagstaff,AZ,86004,Southwest,"Flagstaff, AZ",Coconino,35.1660759781,-111.2697467697,Chevron,Chevron,Chevron,Chevron,(855)946-8946,71250.0,930,"Phoenix, AZ",617.0,"Ciniza, NM",127.25348234114665,263.62615902114095
684269,SPEEDWAY #2891,2161 W ROUTE 66,Flagstaff,AZ,86001,Southwest,"Flagstaff, AZ",Coconino,35.202639038,-111.615728497,Speedway,Tesoro (UNB),Speedway,7-Eleven,(928)774-9374,,930,"Phoenix, AZ",617.0,"Ciniza, NM",124.00198774453052,283.16666719431
418272,CHEVRON,2205 N 4TH ST,Flagstaff,AZ,86004,Southwest,"Flagstaff, AZ",Coconino,35.2105486496,-111.6137147566,Chevron,Chevron,Chevron,Chevron,(928)774-1139,,930,"Phoenix, AZ",617.0,"Ciniza, NM",124.56019693735996,283.055387292762
164562,VP RACING FUEL,222 S MILTON RD,Flagstaff,AZ,86001,Southwest,"Flagstaff, AZ",Coconino,35.1957691655,-111.6546954264,VP Racing Fuels,Unbranded,VP Racing Fuels,Unbranded,(928)556-0008,,930,"Phoenix, AZ",617.0,"Ciniza, NM",123.08677799738575,285.3657243281437
418202,CHEVRON,2295 E BUTLER AVE,Flagstaff,AZ,86004,Southwest,"Flagstaff, AZ",Coconino,35.1919594705,-111.6237759783,Chevron,Chevron,Chevron,Chevron,(928)214-8802,,930,"Phoenix, AZ",617.0,"Ciniza, NM",123.18451770236834,283.6195184374515
446931,SPEEDWAY #2885,2300 E BUTLER AVE,Flagstaff,AZ,86004,Southwest,"Flagstaff, AZ",Coconino,35.1924293548,-111.6233316031,Speedway,Tesoro (UNB),Speedway,7-Eleven,(928)773-7783,,930,"Phoenix, AZ",617.0,"Ciniza, NM",123.22154600145723,283.5944517801033
534185,MARATHON,2318 N 4TH ST,Flagstaff,AZ,86004,Southwest,"Flagstaff, AZ",Coconino,35.2114491062,-111.6131256748,Marathon,Marathon,Marathon,Marathon,(928)526-0287,,930,"Phoenix, AZ",617.0,"Ciniza, NM",124.62807530362385,283.02247328628624
534199,SHELL,2325 S WOODLANDS VILLAGE BLVD,Flagstaff,AZ,86001,Southwest,"Flagstaff, AZ",Coconino,35.1793014814,-111.6683036266,Shell,Shell,Shell,Shell,(928)774-8505,,930,"Phoenix, AZ",617.0,"Ciniza, NM",121.82130574472542,286.1349913115972
164454,MOBIL,2484 E BUTLER AVE,Flagstaff,AZ,86004,Southwest,"Flagstaff, AZ",Coconino,35.1922839412,-111.6192887623,Mobil,ExxonMobil,Mobil,ExxonMobil,(928)214-6305,,930,"Phoenix, AZ",617.0,"Ciniza, NM",123.26007990164922,283.3661517300548
508946,LITTLE AMERICA TRAVEL CENTER,2515 E BUTLER AVE,Flagstaff,AZ,86004,Southwest,"Flagstaff, AZ",Coconino,35.1917701636,-111.6190548115,Sinclair,Sinclair,Sinclair,Sinclair,(928)779-7970,6593.0,930,"Phoenix, AZ",617.0,"Ciniza, NM",123.22820351888362,283.35291193950724
682571,CHEVRON,3099 W SHAMRELL BLVD,Flagstaff,AZ,86005,,,Coconino,35.139387,-111.682349,Chevron,Chevron,Chevron,Chevron,(928)774-1680,,930,"Phoenix, AZ",617.0,"Ciniza, NM",118.96255507245147,286.94941591336163
683733,HANKS TRADING POST,31926 I-89,Flagstaff,AZ,86004,Southwest,"Flagstaff, AZ",Coconino,35.5927479162,-111.5277465299,Unbranded,Unbranded,Unbranded,Unbranded,,,930,"Phoenix, AZ",617.0,"Ciniza, NM",151.3967965146547,279.6176754733806
465680,CIRCLE K #1832,3350 LAKE MARY RD,Flagstaff,AZ,86001,Southwest,"Flagstaff, AZ",Coconino,35.168371,-111.664349,Circle K,Unbranded,Circle K,Couche-Tard,(928)773-0831,,930,"Phoenix, AZ",617.0,"Ciniza, NM",121.12353923438062,285.9146910849663
534191,SHELL,3400 N FORT VALLEY RD,Flagstaff,AZ,86001,Southwest,"Flagstaff, AZ",Coconino,35.2399789861,-111.6717654903,Shell,Shell,Shell,Shell,(928)773-0360,,930,"Phoenix, AZ",617.0,"Ciniza, NM",125.90237609618507,286.3494780019361
202866,CHEVRON,357 N FOREST MEADOWS ST,Flagstaff,AZ,86001,Southwest,"Flagstaff, AZ",Coconino,35.1787400492,-111.6624895853,Chevron,Chevron,Chevron,Chevron,(928)226-7133,,930,"Phoenix, AZ",617.0,"Ciniza, NM",121.84674519486956,285.806739384564
268426,CHEVRON,3686 E ROUTE 66,Flagstaff,AZ,86004,Southwest,"Flagstaff, AZ",Coconino,35.2168248504,-111.5944890856,Chevron,Chevron,Chevron,Chevron,(928)527-6972,,930,"Phoenix, AZ",617.0,"Ciniza, NM",125.21900825403033,281.97277242209196
164451,COUNTRY CLUB MOBIL,3960 N COUNTRY CLUB DR,Flagstaff,AZ,86004,Southwest,"Flagstaff, AZ",Coconino,35.2155085021,-111.5802878949,Mobil,ExxonMobil,Mobil,ExxonMobil,(928)526-5729,,930,"Phoenix, AZ",617.0,"Ciniza, NM",125.30994027842097,281.17047205899803
169675,CHEVRON,4026 LAKE MARY RD,Flagstaff,AZ,86001,Southwest,"Flagstaff, AZ",Coconino,35.1597947311,-111.6607067509,Chevron,Chevron,Chevron,Chevron,(928)556-8675,,930,"Phoenix, AZ",617.0,"Ciniza, NM",120.5828650742218,285.7127270457485
665753,MAVERIK COUNTRY STORE #466,4190 E BUTLER AVE,Flagstaff,AZ,86004,Southwest,"Flagstaff, AZ",Coconino,35.1964604314,-111.5987735104,Maverik,Unbranded,Maverik,Maverik,(928)526-7703,,930,"Phoenix, AZ",617.0,"Ciniza, NM",123.79321783487046,282.2081563637899
465681,VP RACING,4501 N US HIGHWAY 89,Flagstaff,AZ,86004,Southwest,"Flagstaff, AZ",Coconino,35.2239904662,-111.5841547129,VP Racing Fuels,Unbranded,VP Racing Fuels,Unbranded,(928)526-1636,,930,"Phoenix, AZ",617.0,"Ciniza, NM",125.83158965475688,281.39342840608026
292336,GOOD 2 GO #526,4525 N US HIGHWAY 89,Flagstaff,AZ,86004,Southwest,"Flagstaff, AZ",Coconino,35.2248009211,-111.5833714557,Good 2 Go,PSX,76,Good 2 Go,(928)526-2959,,930,"Phoenix, AZ",617.0,"Ciniza, NM",125.89608915139807,281.34972915260755
608964,SAFEWAY #0270,4910 N US HIGHWAY 89,Flagstaff,AZ,86004,Southwest,"Flagstaff, AZ",Coconino,35.2272546874,-111.579432309,Safeway,Unbranded,Safeway,Albertsons,(928)526-6116,,930,"Phoenix, AZ",617.0,"Ciniza, NM",126.11139646434287,281.1290137207239
534194,CIRCLE K #5922,5650 N US HIGHWAY 89,Flagstaff,AZ,86004,Southwest,"Flagstaff, AZ",Coconino,35.232782,-111.575801,Circle K,Unbranded,Circle K,Couche-Tard,(928)714-0908,,930,"Phoenix, AZ",617.0,"Ciniza, NM",126.52982793394789,280.92810377025995
492397,MAVERIK COUNTRY STORE #290,5700 N US HIGHWAY 89,Flagstaff,AZ,86004,Southwest,"Flagstaff, AZ",Coconino,35.2334339596,-111.5752243593,Maverik,Unbranded,Maverik,Maverik,(928)526-3175,,930,"Phoenix, AZ",617.0,"Ciniza, NM",126.58109138234873,280.89607186458596
265583,CHEVRON,605 W ROUTE 66,Flagstaff,AZ,86001,Southwest,"Flagstaff, AZ",Coconino,35.1926992532,-111.6591120245,Chevron,Chevron,Chevron,Chevron,(928)773-0590,,930,"Phoenix, AZ",617.0,"Ciniza, NM",122.82997079322759,285.6149102468921
431864,CARTERS TRAVEL CENTER,7180 N US HIGHWAY 89,Flagstaff,AZ,86004,Southwest,"Flagstaff, AZ",Coconino,35.2423998495,-111.5674763819,Conoco,PSX,Conoco,Parkland Fuel Corp,(928)714-9115,63802.0,930,"Phoenix, AZ",617.0,"Ciniza, NM",127.28409224609507,280.46663635022617
603322,SILVER SADDLE CENTER,9001 N US HIGHWAY 89,Flagstaff,AZ,86004,Southwest,"Flagstaff, AZ",Coconino,35.270114259,-111.5447545981,76,PSX,76,PSX,(928)527-1672,,930,"Phoenix, AZ",617.0,"Ciniza, NM",129.4447945738706,279.21791723738335
268301,Speedi Car Wash and Fuels,915 S MILTON RD,Flagstaff,AZ,86001,Southwest,"Flagstaff, AZ",Coconino,35.191414005,-111.6608606588,Unbranded,Unbranded,Unbranded,Unbranded,(928)774-7746,,930,"Phoenix, AZ",617.0,"Ciniza, NM",122.72365849515552,285.71361630283513
184410,PIC N RUN,98 KACHINA BLVD,Flagstaff,AZ,86001,Southwest,"Flagstaff, AZ",Coconino,35.0897513428,-111.6872952184,Shell,Shell,Shell,Shell,(928)525-1186,,930,"Phoenix, AZ",617.0,"Ciniza, NM",115.5427488551909,287.2922391959186
534186,MARATHON,990 N FORT VALLEY RD,Flagstaff,AZ,86001,Southwest,"Flagstaff, AZ",Coconino,35.2070230553,-111.6479488547,Marathon,Marathon,Marathon,Marathon,(928)779-3075,,930,"Phoenix, AZ",617.0,"Ciniza, NM",123.92427420051142,284.98694539317336
73549,CIRCLE K #0661,1615 MAIN ST,Florence,AZ,85232,Southwest,"Phoenix, AZ",Pinal,33.030234,-111.3873,Circle K,Unbranded,Circle K,Couche-Tard,(520)868-4818,,930,"Phoenix, AZ",980.0,"Tucson, AZ",49.090115197705714,60.751659448936344
295839,CIRCLE K #2938,20 S MAIN ST,Florence,AZ,85132,Southwest,"Phoenix, AZ",Pinal,33.031017,-111.387683,Circle K,Unbranded,Circle K,Couche-Tard,(520)868-9391,,930,"Phoenix, AZ",980.0,"Tucson, AZ",49.0402427574313,60.810124864987024
610803,SAFEWAY #2835,3313 N HUNT HWY,Florence,AZ,85132,Southwest,"Phoenix, AZ",Pinal,33.0624237768,-111.4853945135,Safeway,Unbranded,Safeway,Albertsons,(773)254-5165,,930,"Phoenix, AZ",980.0,"Tucson, AZ",43.220398116502345,65.19471085785382
327149,SPEEDWAY #2964,520 N PINAL PARKWAY AVE,Florence,AZ,85232,Southwest,"Phoenix, AZ",Pinal,33.0366679592,-111.3795034533,Speedway,Tesoro (UNB),Speedway,7-Eleven,(520)868-9500,,930,"Phoenix, AZ",980.0,"Tucson, AZ",49.19546596552213,60.983269047984784
648093,SPEEDWAY #2967,649 N PINAL PKWY,Florence,AZ,85132,Southwest,"Phoenix, AZ",Pinal,33.0379073317,-111.3785135015,Speedway,Tesoro (UNB),Speedway,7-Eleven,,,930,"Phoenix, AZ",980.0,"Tucson, AZ",49.192490226467115,61.04000626295126
646948,SAWMILL EXPRESS #527,14 MI N FT DEFIANCE,Fort Defiance,AZ,86504,Southwest,,Apache,35.9002813298,-109.1638425498,Unbranded,Unbranded,Unbranded,Unbranded,(928)729-6635,,617,"Ciniza, NM",614.0,"Bloomfield, NM",154.5409680124161,86.11192658978163
256118,SPEEDWAY #2880,BIA 12 & BIA 110,Fort Defiance,AZ,86504,Southwest,,Apache,35.7348974624,-109.0595827651,Speedway,Tesoro (UNB),Speedway,7-Eleven,(928)729-5600,,617,"Ciniza, NM",614.0,"Bloomfield, NM",145.30056700460335,89.99061052656103
57309,7 2 11 FOOD STORE #31,ROUTE 12,Fort Defiance,AZ,86504,Southwest,,Apache,35.735263203,-109.0574778026,7 2 11 Food Store,Alon,Alon,United Food Stores Inc,(928)729-5951,,617,"Ciniza, NM",614.0,"Bloomfield, NM",145.1953510675846,89.89357459844747
625197,HUACHUCA MAIN GATE,1000 WINROW RD,Fort Huachuca,AZ,85613,Southwest,"Sierra Vista-Douglas, AZ",Cochise,31.5514562297,-110.311769878,AAFES,Unbranded,AAFES,AAFES,(520)459-3153,,980,"Tucson, AZ",930.0,"Phoenix, AZ",60.52523572359498,166.50711540803024
664164,AAFES,HATFIELD RD BLDG 82301,Fort Huachuca,AZ,85613,Southwest,"Sierra Vista-Douglas, AZ",Cochise,31.5655706724,-110.3370234216,AAFES,Unbranded,AAFES,AAFES,,,980,"Tucson, AZ",930.0,"Phoenix, AZ",58.82628479430979,164.828071663357
485578,BAJA GAS STATION,10180 N FORT MCDOWELL RD,Fort McDowell,AZ,85264,Southwest,"Phoenix, AZ",Maricopa,33.579120547,-111.6779523262,Chevron,Chevron,Chevron,Chevron,(480)837-3506,,930,"Phoenix, AZ",980.0,"Tucson, AZ",24.539240872037094,102.2259403182493
492461,MAVERIK COUNTRY STORE #213,4495 S HIGHWAY 95,Fort Mohave,AZ,86426,Southwest,"Lake Havasu-Kingman, AZ",Mohave,35.0263298453,-114.5982871875,Maverik,Unbranded,Maverik,Maverik,(928)763-6336,,910,"Las Vegas, NV",860.0,"Barstow, CA",84.67240309856578,137.5886539155501
628396,SMITHS FUEL #9473 (DISCOUNT AVAILABLE),4747 S HIGHWAY 95,Fort Mohave,AZ,86426,Southwest,"Lake Havasu-Kingman, AZ",Mohave,35.0190975202,-114.5984144598,Smiths,Unbranded,Smiths,Kroger,(928)330-3700,,910,"Las Vegas, NV",860.0,"Barstow, CA",85.13688638028955,137.55566076249764
603668,SAFEWAY #1474,4823 S HIGHWAY 95,Fort Mohave,AZ,86426,Southwest,"Lake Havasu-Kingman, AZ",Mohave,35.0160783755,-114.5985250425,Safeway,Unbranded,Safeway,Albertsons,,,910,"Las Vegas, NV",860.0,"Barstow, CA",85.32975295426972,137.53917462429567
666127,WALMART SUPERCENTER #4203,5210 S HWY 95,Fort Mohave,AZ,86426,Southwest,"Lake Havasu-Kingman, AZ",Mohave,35.0061392214,-114.5974285724,Walmart,Unbranded,Walmart,Walmart,,,910,"Las Vegas, NV",860.0,"Barstow, CA",85.994248203971,137.56970509203867
592709,MAHAVE MARKET PLACE,5480 HIGHWAY 95,Fort Mohave,AZ,86426,Southwest,"Lake Havasu-Kingman, AZ",Mohave,34.9974846284,-114.5975318104,Texaco,Chevron,Texaco,Chevron,(928)768-0108,,910,"Las Vegas, NV",860.0,"Barstow, CA",86.55223759887315,137.53926948416765
561575,FOUR SONS FOOD STORE #503,13779 N FOUNTAIN HILLS BLVD,Fountain Hills,AZ,85268,Southwest,"Phoenix, AZ",Maricopa,33.6110546279,-111.7285858675,Four Sons Food Store,Chevron,Chevron,Bro Retail Group Inc,(480)837-3800,,930,"Phoenix, AZ",980.0,"Tucson, AZ",22.85073277839672,105.43369121134995
299782,CIRCLE K #6664,17125 E SHEA BLVD,Fountain Hills,AZ,85268,Southwest,"Phoenix, AZ",Maricopa,33.570736,-111.712279,Circle K,Shell,Shell,Couche-Tard,(480)837-2444,,930,"Phoenix, AZ",980.0,"Tucson, AZ",22.488996524679422,102.51094689166906
73021,CIRCLE K #5030,9618 N SAGUARO BLVD,Fountain Hills,AZ,85268,Southwest,"Phoenix, AZ",Maricopa,33.573682,-111.714124,Circle K,Unbranded,Circle K,Couche-Tard,(480)837-8348,,930,"Phoenix, AZ",980.0,"Tucson, AZ",22.467846348573953,102.74030407319117
416251,FREDONIA SHORTSTOP,10 N MAIN ST,Fredonia,AZ,86022,Southwest,"Flagstaff, AZ",Coconino,36.9492890664,-112.5261570881,Sinclair,Sinclair,Sinclair,Sinclair,(928)643-7110,,791,"Cedar City, UT",910.0,"Las Vegas, NV",58.298035667550685,154.7288913822679
222342,PIPE SPRINGS CHEVRON,2 W PIPE SPRINGS RD,Fredonia,AZ,86022,Southwest,"Flagstaff, AZ",Coconino,36.8582350465,-112.7351025951,Chevron,Chevron,Chevron,Chevron,(928)643-6040,,791,"Cedar City, UT",910.0,"Las Vegas, NV",59.39290498247423,141.75532578228382
265437,CHEVRON,623 S MAIN,Fredonia,AZ,86022,Southwest,"Flagstaff, AZ",Coconino,36.9398017418,-112.5213441841,Chevron,Chevron,Chevron,Chevron,(928)643-7107,,791,"Cedar City, UT",910.0,"Las Vegas, NV",58.99844610993009,154.76118353244547
649907,NORTH RIM COUNTRY STORE,HWY 67 MILE POST 605,Fredonia,AZ,86022,Southwest,"Flagstaff, AZ",Coconino,36.4130308755,-112.1306051691,Unbranded,Unbranded,Unbranded,Unbranded,(928)638-2383,,791,"Cedar City, UT",910.0,"Las Vegas, NV",101.34862813975599,168.42633253847302
646724,CHEVRON,JCT HWY 89A  & 67,Fredonia,AZ,86022,Southwest,"Flagstaff, AZ",Coconino,36.714268594,-112.2164398186,Chevron,Chevron,Chevron,Chevron,,,791,"Cedar City, UT",910.0,"Las Vegas, NV",81.21085477232904,166.78716251628236
466986,STEAMBOAT TRADING,427 HWY 264 W,Ganado,AZ,86505,Southwest,,Apache,35.7469203951,-109.859492502,Unbranded,Unbranded,Unbranded,Unbranded,(928)736-2586,,617,"Ciniza, NM",614.0,"Bloomfield, NM",188.84000054984114,123.75934016036169
431863,MORAS GROCERY,AZ-264,Ganado,AZ,86505,Southwest,,Apache,35.7086182926,-109.5416639673,Alon,Alon,Alon,Delek US Holdings,,,617,"Ciniza, NM",614.0,"Bloomfield, NM",170.88384131632967,110.85972503657307
564159,SPEEDWAY #3005,E HWY 264 & HWY 191,Ganado,AZ,86505,Southwest,,Apache,35.7528021873,-109.624974869,Speedway,Tesoro (UNB),Speedway,7-Eleven,(928)755-3261,,617,"Ciniza, NM",614.0,"Bloomfield, NM",176.15740881955043,112.69988892534353
466989,CHEVRON,W HWY 264 & HWY 191,Ganado,AZ,86505,Southwest,,Apache,35.75491,-109.626452,Chevron,Chevron,Chevron,Chevron,,,617,"Ciniza, NM",614.0,"Bloomfield, NM",176.27368545615963,112.68061912760206
534013,PILOT #1243,3006 BUTTERFIELD TRL,Gila Bend,AZ,85337,Southwest,"Phoenix, AZ",Maricopa,32.9296295485,-112.6732387977,Pilot,Shell,Shell,Pilot,(928)683-2449,20.0,930,"Phoenix, AZ",980.0,"Tucson, AZ",49.85595069428207,110.30677573407532
403049,CIRCLE K #0225,500 W PIMA ST,Gila Bend,AZ,85337,Southwest,"Phoenix, AZ",Maricopa,32.946163,-112.72447,Circle K,Unbranded,Circle K,Couche-Tard,(928)683-2751,,930,"Phoenix, AZ",980.0,"Tucson, AZ",51.174532049846434,113.47902869399134
599968,CHEVRON,619 W PIMA ST,Gila Bend,AZ,85337,Southwest,"Phoenix, AZ",Maricopa,32.9445636145,-112.7277396572,Chevron,Chevron,Chevron,Chevron,(928)683-6324,,930,"Phoenix, AZ",980.0,"Tucson, AZ",51.38868901596986,113.60219490376474
679936,CIRCLE K #3479,710 W PIMA RD,Gila Bend,AZ,85337,Southwest,"Phoenix, AZ",Maricopa,32.944654,-112.730942,Circle K,Unbranded,Circle K,Couche-Tard,(928)683-9962,,930,"Phoenix, AZ",980.0,"Tucson, AZ",51.520803216115596,113.77241678101919
492492,LOVES TRAVEL STOPS #296,820 W PIMA,Gila Bend,AZ,85337,Southwest,"Phoenix, AZ",Maricopa,32.9440267461,-112.7333210048,Loves,Unbranded,Loves,Loves,(928)683-2210,63565.0,930,"Phoenix, AZ",980.0,"Tucson, AZ",51.65163506726106,113.87825429091967
199848,PILOT #1244,942 E PIMA ST,Gila Bend,AZ,85337,Southwest,"Phoenix, AZ",Maricopa,32.9496407065,-112.705565967,Pilot,Shell,Shell,Pilot,(928)683-9992,60650.0,930,"Phoenix, AZ",980.0,"Tucson, AZ",50.210924701064194,112.597321010416
259772,CIRCLE K #5316,1189 E BASELINE RD,Gilbert,AZ,85233,Southwest,"Phoenix, AZ",Maricopa,33.378476,-111.807782,Circle K,Unbranded,Circle K,Couche-Tard,(480)507-5547,,930,"Phoenix, AZ",980.0,"Tucson, AZ",16.096888218254723,93.38069760554818
609951,SAMS CLUB #6605,1225 N GILBERT RD,Gilbert,AZ,85234,Southwest,"Phoenix, AZ",Maricopa,33.372033,-111.789561,Sams Club,Unbranded,Sams Club,Sams Club,(480)926-9006,,930,"Phoenix, AZ",980.0,"Tucson, AZ",17.233915458958027,92.45495621444323
598071,COSTCO #0481,1415 N ARIZONA AVE,Gilbert,AZ,85233,Southwest,"Phoenix, AZ",Maricopa,33.375441078,-111.8418842938,Costco,Unbranded,Costco,Costco,(602)293-0050,,930,"Phoenix, AZ",980.0,"Tucson, AZ",14.305681054515235,94.24526514553618
686026,FRYS,1465 NORTH HIGLEY RD,Gilbert,AZ,85234,Southwest,"Phoenix, AZ",Maricopa,33.376005,-111.72173,Frys,Unbranded,Frys,Kroger,,,930,"Phoenix, AZ",980.0,"Tucson, AZ",20.924895206475618,90.7420441405728
467280,CIRCLE K #3366,1564 E RAY RD,Gilbert,AZ,85296,Southwest,"Phoenix, AZ",Maricopa,33.321651,-111.756338,Circle K,Shell,Shell,Couche-Tard,(480)963-4994,,930,"Phoenix, AZ",980.0,"Tucson, AZ",20.312829706162567,88.48338336632087
307716,HOMEPLACE MARKET,1570 S GILBERT RD,Gilbert,AZ,85296,Southwest,"Phoenix, AZ",Maricopa,33.3217164249,-111.7903471882,Chevron,Chevron,Chevron,Chevron,(480)917-1402,,930,"Phoenix, AZ",980.0,"Tucson, AZ",18.559546140094113,89.51729797550269
450368,CIRCLE K #1601,1611 E GUADALUPE RD,Gilbert,AZ,85234,Southwest,"Phoenix, AZ",Maricopa,33.3642628458,-111.7555750813,Circle K,Unbranded,Circle K,Couche-Tard,(480)507-5500,,930,"Phoenix, AZ",980.0,"Tucson, AZ",19.26542398363359,90.99538570589604
608207,GIT N RUN,1631 S VAL VISTA DR,Gilbert,AZ,85296,Southwest,"Phoenix, AZ",Maricopa,33.3206491407,-111.7550711956,Mobil,ExxonMobil,Mobil,ExxonMobil,(480)917-7772,,930,"Phoenix, AZ",980.0,"Tucson, AZ",20.408742788238953,88.38633478623254
655003,FAST MARKET #4603,1636 S HIGLEY RD,Gilbert,AZ,85295,Southwest,"Phoenix, AZ",Maricopa,33.3206364156,-111.721804331,FastMarket,Shell,Shell,GPM Investments,(480)783-2029,,930,"Phoenix, AZ",980.0,"Tucson, AZ",22.15520039290885,87.40993656287898
665449,SHELL SERVICE STATION,1730 N HIGLEY RD,Gilbert,AZ,85234,Southwest,"Phoenix, AZ",Maricopa,33.3822931378,-111.7219270393,Shell,Shell,Shell,Shell,,,930,"Phoenix, AZ",980.0,"Tucson, AZ",20.813493919620193,91.12860186679113
629569,FRYS FUEL #7624 (DISCOUNT AVAILABLE),1845 E BASELINE RD,Gilbert,AZ,85233,Southwest,"Phoenix, AZ",Maricopa,33.3784168852,-111.7903195658,Frys,Unbranded,Frys,Kroger,(480)539-3700,,930,"Phoenix, AZ",980.0,"Tucson, AZ",17.061469160220184,92.85575625714156
624714,FAST MARKET #4602,2367 S VAL VISTA DR,Gilbert,AZ,85295,Southwest,"Phoenix, AZ",Maricopa,33.3073737866,-111.7550388169,FastMarket,Shell,Shell,GPM Investments,(480)782-1465,,930,"Phoenix, AZ",980.0,"Tucson, AZ",20.824817732121172,87.60097048113838
615643,WEST COAST PETROLEUM,2371 E BASELINE RD,Gilbert,AZ,85234,Southwest,"Phoenix, AZ",Maricopa,33.3787371745,-111.782244242,Mobil,ExxonMobil,Mobil,ExxonMobil,(480)766-3339,,930,"Phoenix, AZ",980.0,"Tucson, AZ",17.502499127618186,92.63641790773397
630994,SAMS CLUB #4829,2621 S MARKET ST,Gilbert,AZ,85295,Southwest,"Phoenix, AZ",Maricopa,33.302046,-111.742199,Sams Club,Unbranded,Sams Club,Sams Club,(480)722-1447,,930,"Phoenix, AZ",980.0,"Tucson, AZ",21.652358854479296,86.90171126763768
620737,QUIKTRIP #469,2761 E BASELINE RD,Gilbert,AZ,85234,Southwest,"Phoenix, AZ",Maricopa,33.3786201568,-111.7720298098,QuikTrip,Unbranded,QuikTrip,QuikTrip,(480)558-5342,,930,"Phoenix, AZ",980.0,"Tucson, AZ",18.071811228283618,92.33050714865658
610526,DANNYS FAMILY CAR WASH,2870 S MARKET ST,Gilbert,AZ,85295,Southwest,"Phoenix, AZ",Maricopa,33.298748117,-111.7457434247,Shell,Shell,Shell,Shell,(480)294-6886,,930,"Phoenix, AZ",980.0,"Tucson, AZ",21.580302406233077,86.81273873666807
604884,COSTCO #0644,2887 S MARKET ST,Gilbert,AZ,85295,Southwest,"Phoenix, AZ",Maricopa,33.2945243561,-111.7462268766,Costco,Unbranded,Costco,Costco,(480)366-3952,,930,"Phoenix, AZ",980.0,"Tucson, AZ",21.69773646923179,86.57798346785505
620661,CIRCLE K #3372,3077 S VAL VISTA DR,Gilbert,AZ,85295,Southwest,"Phoenix, AZ",Maricopa,33.296754,-111.755051,Circle K,Unbranded,Circle K,Couche-Tard,(480)899-1020,,930,"Phoenix, AZ",980.0,"Tucson, AZ",21.178481593405536,86.97572102994354
653092,CIRCLE K #3462,3155 S GILBERT RD,Gilbert,AZ,85295,Southwest,"Phoenix, AZ",Maricopa,33.292469,-111.789042,Circle K,Unbranded,Circle K,Couche-Tard,(480)855-7316,,930,"Phoenix, AZ",980.0,"Tucson, AZ",19.659161168942088,87.77260410980708
646143,CHEVRON,3160 E CHANDLER HEIGHTS RD,Gilbert,AZ,85298,Southwest,"Phoenix, AZ",Maricopa,33.234400842,-111.7212292106,Chevron,Chevron,Chevron,Chevron,(480)840-9621,,930,"Phoenix, AZ",980.0,"Tucson, AZ",25.16597839309439,82.28460736285197
652697,FAST MARKET #4604,3171 E PECOS RD,Gilbert,AZ,85295,Southwest,"Phoenix, AZ",Maricopa,33.2920029703,-111.721800913,FastMarket,Shell,Shell,GPM Investments,(480)988-4138,,930,"Phoenix, AZ",980.0,"Tucson, AZ",23.018345087098748,85.70170679407785
625113,CIRCLE K #5293,3230 E WILLIAMS FIELD RD,Gilbert,AZ,85295,Southwest,"Phoenix, AZ",Maricopa,33.307293,-111.720679,Circle K,Unbranded,Circle K,Couche-Tard,(480)279-3549,,930,"Phoenix, AZ",980.0,"Tucson, AZ",22.598421488411446,86.57975268521723
626245,FRYS FUEL #7075 (DISCOUNT AVAILABLE),3271 S HIGLEY RD,Gilbert,AZ,85297,Southwest,"Phoenix, AZ",Maricopa,33.2912843418,-111.720363205,Frys,Unbranded,Frys,Kroger,(480)988-6300,,930,"Phoenix, AZ",980.0,"Tucson, AZ",23.11498450820136,85.61667838326775
467281,CIRCLE K #6355,33 S VAL VISTA DR,Gilbert,AZ,85296,Southwest,"Phoenix, AZ",Maricopa,33.349608,-111.755153,Circle K,Unbranded,Circle K,Couche-Tard,(480)632-1625,,930,"Phoenix, AZ",980.0,"Tucson, AZ",19.619070363011716,90.10850359018643
169202,CIRCLE K #5307,3589 E BASELINE RD,Gilbert,AZ,85234,Southwest,"Phoenix, AZ",Maricopa,33.378672,-111.754657,Circle K,Unbranded,Circle K,Couche-Tard,(480)507-2486,,930,"Phoenix, AZ",980.0,"Tucson, AZ",19.038464491786222,91.83171981859948
629305,ARCO,37 N MCQUEEN RD,Gilbert,AZ,85233,Southwest,"Phoenix, AZ",Maricopa,33.3503093276,-111.8238229699,ARCO,Tesoro (UNB),ARCO,Marathon,(480)503-2188,,930,"Phoenix, AZ",980.0,"Tucson, AZ",15.944150799388083,92.220686557507
438830,CHEVRON,37 S MCQUEEN RD,Gilbert,AZ,85233,Southwest,"Phoenix, AZ",Maricopa,33.3493728689,-111.8237856251,Chevron,Chevron,Chevron,Chevron,(480)892-1725,,930,"Phoenix, AZ",980.0,"Tucson, AZ",15.973781836170696,92.16499841777163
641958,QUIKTRIP #1404,3720 S VAL VISTA DR,Gilbert,AZ,85297,Southwest,"Phoenix, AZ",Maricopa,33.2826319193,-111.7558337034,QuikTrip,Unbranded,QuikTrip,QuikTrip,(480)855-1673,,930,"Phoenix, AZ",980.0,"Tucson, AZ",21.64079646422544,86.17037801585879
467277,VALERO IN THE ZONE,3981 E GUADALUPE RD,Gilbert,AZ,85234,Southwest,"Phoenix, AZ",Maricopa,33.3645468411,-111.705413317,Valero,Valero,Valero,Valero,(480)813-9622,,930,"Phoenix, AZ",980.0,"Tucson, AZ",22.036052021596102,89.5960291940557
621731,SHELL,4027 S GILBERT RD,Gilbert,AZ,85297,Southwest,"Phoenix, AZ",Maricopa,33.276735,-111.788874,Shell,Shell,Shell,Shell,(480)348-2223,,930,"Phoenix, AZ",980.0,"Tucson, AZ",20.284475755473306,86.85590032036707
686154,FRYS #658,4123 EAST WILLIAMS FIELD RD,Gilbert,AZ,85295,Southwest,"Phoenix, AZ",Maricopa,33.3071309469,-111.7041560983,Frys,Unbranded,Frys,Kroger,,,930,"Phoenix, AZ",980.0,"Tucson, AZ",23.46677963061234,86.09344413279285
268210,CIRCLE K #0412,503 N GILBERT RD,Gilbert,AZ,85234,Southwest,"Phoenix, AZ",Maricopa,33.359781,-111.789557,Circle K,Unbranded,Circle K,Couche-Tard,(480)892-0957,,930,"Phoenix, AZ",980.0,"Tucson, AZ",17.51298128775933,91.730307966602
453918,CIRCLE K #3419,5202 E BASELINE RD,Gilbert,AZ,85234,Southwest,"Phoenix, AZ",Maricopa,33.3797798156,-111.7217712402,Circle K,Unbranded,Circle K,Couche-Tard,(480)325-0216,,930,"Phoenix, AZ",980.0,"Tucson, AZ",20.861332083013764,90.97191144301871
620688,FRANCIS AND SONS,5230 S POWER RD,Gilbert,AZ,85295,Southwest,"Phoenix, AZ",Maricopa,33.3208159241,-111.690208788,Shell,Shell,Shell,Shell,(480)619-4771,,930,"Phoenix, AZ",980.0,"Tucson, AZ",23.833626102900055,86.52396038580962
627733,FRYS FUEL #7670 (DISCOUNT AVAILABLE),6470 S HIGLEY RD,Gilbert,AZ,85298,Southwest,"Phoenix, AZ",Maricopa,33.2333020731,-111.7219278781,Frys,Unbranded,Frys,Kroger,(480)840-9560,,930,"Phoenix, AZ",980.0,"Tucson, AZ",25.178201189650185,82.2416926698668
664581,CIRCLE K #1642,7165 S VAL VISTA DR,Gilbert,AZ,85298,Southwest,"Phoenix, AZ",Maricopa,33.2199710533,-111.7548267158,Circle K,Unbranded,Circle K,Couche-Tard,(480)895-9244,,930,"Phoenix, AZ",980.0,"Tucson, AZ",24.261868343544702,82.49828399494643
7945,QUIKTRIP #486,726 S GILBERT RD,Gilbert,AZ,85296,Southwest,"Phoenix, AZ",Maricopa,33.3368923657,-111.7905067288,QuikTrip,Unbranded,QuikTrip,QuikTrip,(480)497-8236,,930,"Phoenix, AZ",980.0,"Tucson, AZ",18.07900019880525,90.41136586661999
622499,CIRCLE K #3383,7260 S POWER RD,Gilbert,AZ,85297,Southwest,"Phoenix, AZ",Maricopa,33.282261,-111.686809,Circle K,Unbranded,Circle K,Couche-Tard,(480)279-5786,,930,"Phoenix, AZ",980.0,"Tucson, AZ",25.120839230045267,84.10435091391696
209995,CIRCLE K #5292,750 E WARNER RD,Gilbert,AZ,85296,Southwest,"Phoenix, AZ",Maricopa,33.336036,-111.773503,Circle K,Unbranded,Circle K,Couche-Tard,(480)497-9868,,930,"Phoenix, AZ",980.0,"Tucson, AZ",18.995207052912207,89.84696827367561
417778,CIRCLE K #5286,751 N ARIZONA AVE,Gilbert,AZ,85233,Southwest,"Phoenix, AZ",Maricopa,33.363477,-111.841302,Circle K,Unbranded,Circle K,Couche-Tard,(480)892-8922,,930,"Phoenix, AZ",980.0,"Tucson, AZ",14.649105098810153,93.53120959532443
169931,CIRCLE K #5294,755 W WARNER RD,Gilbert,AZ,85233,Southwest,"Phoenix, AZ",Maricopa,33.334929,-111.806414,Circle K,Unbranded,Circle K,Couche-Tard,(480)821-1700,,930,"Phoenix, AZ",980.0,"Tucson, AZ",17.31440957747391,90.78456300528167
202960,FRYS FUEL #7064 (DISCOUNT AVAILABLE),774 S VAL VISTA DR,Gilbert,AZ,85296,Southwest,"Phoenix, AZ",Maricopa,33.3363102166,-111.7561666183,Frys,Unbranded,Frys,Kroger,(480)633-2337,,930,"Phoenix, AZ",980.0,"Tucson, AZ",19.904788894680966,89.34726014241001
467282,DESERT ROSE EXPRESS,777 S GILBERT RD,Gilbert,AZ,85296,Southwest,"Phoenix, AZ",Maricopa,33.3357825653,-111.7894615518,Shell,Shell,Shell,Shell,(480)892-1130,,930,"Phoenix, AZ",980.0,"Tucson, AZ",18.166375746898865,90.31439166826615
683032,ONE STOP GAS AND FOOD,777 W RAY RD,Gilbert,AZ,85233,Southwest,"Phoenix, AZ",Maricopa,33.320409263,-111.8061609324,Shell,Shell,Shell,Shell,(480)614-1436,,930,"Phoenix, AZ",980.0,"Tucson, AZ",17.805019534971578,89.93100434863817
448735,VALERO,784 N MCQUEEN RD,Gilbert,AZ,85233,Southwest,"Phoenix, AZ",Maricopa,33.3636667869,-111.8250337537,Valero,Valero,Valero,Valero,(480)507-5505,,930,"Phoenix, AZ",980.0,"Tucson, AZ",15.508500104925469,93.03718725462537
249141,7-ELEVEN #32602,785 S VAL VISTA DR,Gilbert,AZ,85296,Southwest,"Phoenix, AZ",Maricopa,33.336269,-111.755139,7-Eleven,Unbranded,7-Eleven,7-Eleven,(480)503-3566,,930,"Phoenix, AZ",980.0,"Tucson, AZ",19.960523739756557,89.31449484168903
21058,7-ELEVEN #27876,785 W ELLIOT RD,Gilbert,AZ,85233,Southwest,"Phoenix, AZ",Maricopa,33.34943,-111.80646,7-Eleven,Unbranded,7-Eleven,7-Eleven,(480)813-2514,,930,"Phoenix, AZ",980.0,"Tucson, AZ",16.880724568626263,91.63371473219736
554523,ARCO,786 W GUADALUPE RD,Gilbert,AZ,85233,Southwest,"Phoenix, AZ",Maricopa,33.3648250725,-111.8065317934,ARCO,Tesoro (UNB),ARCO,Marathon,(480)503-2730,,930,"Phoenix, AZ",980.0,"Tucson, AZ",16.4733490421432,92.53926271716317
569286,RAY MINI MART,797 E RAY RD,Gilbert,AZ,85296,Southwest,"Phoenix, AZ",Maricopa,33.3207089219,-111.7741599163,76,PSX,76,PSX,(480)917-7729,,930,"Phoenix, AZ",980.0,"Tucson, AZ",19.419705288687855,88.96380451826963
542586,Shell,805 N MCQUEEN RD,Gilbert,AZ,85233,Southwest,"Phoenix, AZ",Maricopa,33.3648004763,-111.8239235715,Shell,Shell,Shell,Shell,(480)558-7056,,930,"Phoenix, AZ",980.0,"Tucson, AZ",15.53843882071901,93.06922247725343
245759,SPEED SMART,815 N GILBERT RD,Gilbert,AZ,85234,Southwest,"Phoenix, AZ",Maricopa,33.3649855092,-111.789236969,Speed Smart,Chevron,Chevron,Speed Smart,(480)892-0200,,930,"Phoenix, AZ",980.0,"Tucson, AZ",17.407459890630715,92.02826785191182
604889,VALERO,831 E WARNER RD,Gilbert,AZ,85296,Southwest,"Phoenix, AZ",Maricopa,33.3351889428,-111.7722996792,Valero,Valero,Valero,Valero,,,930,"Phoenix, AZ",980.0,"Tucson, AZ",19.08258111185057,89.76086559231061
629020,CHEVRON,832 N HIGLEY RD,Gilbert,AZ,85234,Southwest,"Phoenix, AZ",Maricopa,33.3655830146,-111.7223420888,Chevron,Chevron,Chevron,Chevron,(520)807-3600,,930,"Phoenix, AZ",980.0,"Tucson, AZ",21.075826494710782,90.12858070430974
621434,FAST MARKET #4605,8424 S POWER RD,Gilbert,AZ,85297,Southwest,"Phoenix, AZ",Maricopa,33.2659410378,-111.6867853709,FastMarket,Shell,Shell,GPM Investments,(480)988-3749,,930,"Phoenix, AZ",980.0,"Tucson, AZ",25.6587897323488,83.12569349565105
